,City,Lat,Lng,Max Temp,Humidity,Cloudiness,Wind Speed,Country,Date
2,Saint George,37.1041,-113.5841,66.79,10,0,0.0,US,2022-02-13 00:42:57
3,Port Alfred,-33.5906,26.891,75.36,93,100,16.15,ZA,2022-02-13 00:42:58
4,Longyearbyen,78.2186,15.6401,10.24,72,0,9.22,SJ,2022-02-13 00:42:58
5,Tsalka,41.5946,44.0891,23.76,60,8,8.97,GE,2022-02-13 00:42:59
6,Sitka,57.0531,-135.33,42.69,75,100,3.44,US,2022-02-13 00:42:59
7,Punta Arenas,-53.15,-70.9167,51.91,62,0,11.5,CL,2022-02-13 00:41:07
8,Oranjemund,-28.55,16.4333,65.64,86,0,7.83,NA,2022-02-13 00:42:59
9,Rikitea,-23.1203,-134.9692,78.84,71,0,16.82,PF,2022-02-13 00:43:00
10,Ribeira Grande,38.5167,-28.7,61.57,90,100,15.39,PT,2022-02-13 00:43:00
11,Tasiilaq,65.6145,-37.6368,8.76,66,100,5.28,GL,2022-02-13 00:43:01
12,Puerto Ayora,-0.7393,-90.3518,75.54,93,47,1.99,EC,2022-02-13 00:43:01
13,Pont-Audemer,49.35,0.5167,40.12,82,57,10.13,FR,2022-02-13 00:43:01
14,Bluff,-46.6,168.3333,53.8,76,100,14.85,NZ,2022-02-13 00:43:02
15,Dikson,73.5069,80.5464,-4.14,87,100,25.05,RU,2022-02-13 00:43:02
16,Half Moon Bay,37.4636,-122.4286,78.71,50,20,4.61,US,2022-02-13 00:42:16
17,Dikson,73.5069,80.5464,-4.14,87,100,25.05,RU,2022-02-13 00:43:02
18,Deputatskiy,69.3,139.9,-10.61,93,100,5.79,RU,2022-02-13 00:43:03
19,Atuona,-9.8,-139.0333,77.67,77,14,12.33,PF,2022-02-13 00:43:03
20,Cape Town,-33.9258,18.4232,69.89,78,0,10.36,ZA,2022-02-13 00:43:04
21,Georgetown,5.4112,100.3354,78.89,84,20,5.75,MY,2022-02-13 00:43:04
22,Lebu,-37.6167,-73.65,58.12,90,100,8.61,CL,2022-02-13 00:43:04
23,Hofn,64.2539,-15.2082,23.04,68,100,17.63,IS,2022-02-13 00:43:05
24,Punta Arenas,-53.15,-70.9167,51.91,62,0,11.5,CL,2022-02-13 00:41:07
25,Dikson,73.5069,80.5464,-4.14,87,100,25.05,RU,2022-02-13 00:43:02
26,San Jorge,-31.8962,-61.8598,61.38,28,0,7.14,AR,2022-02-13 00:43:06
27,Port Lincoln,-34.7333,135.8667,78.35,38,100,10.4,AU,2022-02-13 00:43:06
28,Aguimes,27.9054,-15.4461,60.85,72,20,15.99,ES,2022-02-13 00:43:06
29,Bambous Virieux,-20.3428,57.7575,77.25,100,75,5.75,MU,2022-02-13 00:43:07
30,Opuwo,-18.0607,13.84,66.31,84,100,4.29,NA,2022-02-13 00:43:07
31,Punta Arenas,-53.15,-70.9167,51.91,62,0,11.5,CL,2022-02-13 00:41:07
32,Sokoni,-6.4333,39.55,78.66,77,100,5.46,TZ,2022-02-13 00:43:08
33,Rikitea,-23.1203,-134.9692,78.84,71,0,16.82,PF,2022-02-13 00:43:00
34,Mataura,-46.1927,168.8643,53.47,95,100,4.16,NZ,2022-02-13 00:43:08
35,Lebu,-37.6167,-73.65,58.12,90,100,8.61,CL,2022-02-13 00:43:04
36,Sitka,57.0531,-135.33,42.69,75,100,3.44,US,2022-02-13 00:42:59
37,Kodiak,57.79,-152.4072,38.71,65,20,8.05,US,2022-02-13 00:43:09
38,Nanortalik,60.1432,-45.2371,29.32,97,100,10.18,GL,2022-02-13 00:43:10
39,Kodiak,57.79,-152.4072,38.71,65,20,8.05,US,2022-02-13 00:43:09
40,Yulara,-25.2406,130.9889,84.04,23,0,8.05,AU,2022-02-13 00:43:10
41,Punta Arenas,-53.15,-70.9167,51.91,62,0,11.5,CL,2022-02-13 00:41:07
42,Mataura,-46.1927,168.8643,53.47,95,100,4.16,NZ,2022-02-13 00:43:08
43,Kudat,6.8837,116.8477,75.29,100,20,0.0,MY,2022-02-13 00:43:11
44,Mataura,-46.1927,168.8643,53.47,95,100,4.16,NZ,2022-02-13 00:43:08
45,Saskylakh,71.9167,114.0833,-5.85,75,49,7.74,RU,2022-02-13 00:43:11
46,Rikitea,-23.1203,-134.9692,78.84,71,0,16.82,PF,2022-02-13 00:43:00
47,Hambantota,6.1241,81.1185,75.54,100,20,3.44,LK,2022-02-13 00:43:12
48,Rafai,4.95,23.9167,69.8,38,9,2.15,CF,2022-02-13 00:43:12
49,Ereymentau,51.6199,73.1033,17.51,91,100,14.74,KZ,2022-02-13 00:43:13
50,Kaisiadorys,54.8667,24.45,30.09,75,28,12.33,LT,2022-02-13 00:43:13
51,Pevek,69.7008,170.3133,-19.34,97,100,8.97,RU,2022-02-13 00:43:14
52,Kruisfontein,-34.0033,24.7314,69.76,94,100,8.7,ZA,2022-02-13 00:43:14
53,Leh,34.1667,77.5833,-1.23,76,100,2.13,IN,2022-02-13 00:43:14
54,Haimen,23.1935,116.6142,60.69,82,100,8.43,CN,2022-02-13 00:43:15
55,Richards Bay,-28.783,32.0377,71.04,90,1,9.44,ZA,2022-02-13 00:43:15
56,Bluff,-46.6,168.3333,53.8,76,100,14.85,NZ,2022-02-13 00:43:02
57,Vannes,47.8333,-2.5,49.28,93,100,10.74,FR,2022-02-13 00:43:16
58,Litovko,49.2361,135.1742,14.29,92,100,4.21,RU,2022-02-13 00:43:16
59,Hobart,-42.8794,147.3294,79.02,44,75,21.85,AU,2022-02-13 00:40:28
60,Cherskiy,68.75,161.3,-17.36,97,100,10.36,RU,2022-02-13 00:43:17
61,Gamba,-2.65,10.0,77.32,90,100,4.9,GA,2022-02-13 00:43:17
62,Nome,64.5011,-165.4064,3.27,47,0,6.91,US,2022-02-13 00:43:18
63,Puerto Ayora,-0.7393,-90.3518,75.54,93,47,1.99,EC,2022-02-13 00:43:01
64,Anaco,9.4389,-64.4728,79.14,39,70,9.31,VE,2022-02-13 00:43:18
65,Punta Arenas,-53.15,-70.9167,51.91,62,0,11.5,CL,2022-02-13 00:41:07
66,Ilulissat,69.2167,-51.1,12.22,85,100,12.66,GL,2022-02-13 00:43:19
67,Hithadhoo,-0.6,73.0833,81.19,70,43,11.23,MV,2022-02-13 00:43:19
68,Nanortalik,60.1432,-45.2371,29.32,97,100,10.18,GL,2022-02-13 00:43:10
69,Skibbereen,51.55,-9.2667,49.8,95,100,6.51,IE,2022-02-13 00:43:20
70,Rikitea,-23.1203,-134.9692,78.84,71,0,16.82,PF,2022-02-13 00:43:00
71,Fort Nelson,58.8053,-122.7002,17.19,73,75,6.91,CA,2022-02-13 00:43:20
72,Port Alfred,-33.5906,26.891,75.36,93,100,16.15,ZA,2022-02-13 00:42:58
73,Klaksvik,62.2266,-6.589,40.12,97,100,25.61,FO,2022-02-13 00:43:21
74,Hoquiam,46.9809,-123.8893,58.06,58,0,5.73,US,2022-02-13 00:41:43
75,Arraial Do Cabo,-22.9661,-42.0278,75.07,84,26,4.83,BR,2022-02-13 00:43:21
76,Nha Trang,12.25,109.1833,77.0,79,100,4.72,VN,2022-02-13 00:38:54
77,The Pas,53.8251,-101.2541,-5.78,71,0,4.61,CA,2022-02-13 00:43:22
78,Rikitea,-23.1203,-134.9692,78.84,71,0,16.82,PF,2022-02-13 00:43:00
79,Talnakh,69.4865,88.3972,-8.52,75,15,9.75,RU,2022-02-13 00:43:23
80,Barrow,71.2906,-156.7887,-30.98,98,0,10.36,US,2022-02-13 00:43:23
81,York,40.1254,-77.0,44.78,50,0,9.22,US,2022-02-13 00:39:44
82,Bandarbeyla,9.4942,50.8122,74.19,73,100,11.95,SO,2022-02-13 00:43:23
83,Nakhon Phanom,17.3333,104.4167,78.6,77,85,3.87,TH,2022-02-13 00:43:24
84,Thompson,55.7435,-97.8558,-11.04,64,20,5.75,CA,2022-02-13 00:42:15
85,Muncar,-8.4333,114.3333,76.86,89,100,4.32,ID,2022-02-13 00:43:24
86,Kapaa,22.0752,-159.319,79.48,66,75,12.66,US,2022-02-13 00:43:25
87,Taoudenni,22.6783,-3.9836,61.79,23,0,11.25,ML,2022-02-13 00:43:25
88,Waingapu,-9.6567,120.2641,82.29,72,99,2.64,ID,2022-02-13 00:43:26
89,Ugoofaaru,5.6667,73.0,81.55,71,100,5.93,MV,2022-02-13 00:43:26
90,Qaanaaq,77.484,-69.3632,-18.94,48,0,8.77,GL,2022-02-13 00:43:26
91,Aksarka,66.5606,67.7975,-11.43,98,100,7.25,RU,2022-02-13 00:43:27
92,Kapaa,22.0752,-159.319,79.48,66,75,12.66,US,2022-02-13 00:43:25
93,Vostok,46.4856,135.8833,6.76,90,100,2.89,RU,2022-02-13 00:43:28
94,Albany,42.6001,-73.9662,34.38,67,91,1.01,US,2022-02-13 00:41:08
95,Saskylakh,71.9167,114.0833,-5.85,75,49,7.74,RU,2022-02-13 00:43:11
96,Mount Gambier,-37.8333,140.7667,80.51,34,100,9.22,AU,2022-02-13 00:43:28
97,Jamestown,42.097,-79.2353,20.3,79,100,10.36,US,2022-02-13 00:42:47
98,Fort Saint James,54.4333,-124.25,32.07,95,100,0.16,CA,2022-02-13 00:43:29
99,Povenets,62.8487,34.8262,5.45,99,84,4.18,RU,2022-02-13 00:43:29
100,Lavrentiya,65.5833,-171.0,-10.34,90,7,6.91,RU,2022-02-13 00:43:29
101,Bluff,-46.6,168.3333,53.8,76,100,14.85,NZ,2022-02-13 00:43:02
102,Hobart,-42.8794,147.3294,79.02,44,75,21.85,AU,2022-02-13 00:40:28
103,Mende,44.6667,3.5,31.87,90,71,7.52,FR,2022-02-13 00:43:30
104,Rikitea,-23.1203,-134.9692,78.84,71,0,16.82,PF,2022-02-13 00:43:00
105,Chokurdakh,70.6333,147.9167,-2.51,96,100,12.08,RU,2022-02-13 00:43:31
106,Rikitea,-23.1203,-134.9692,78.84,71,0,16.82,PF,2022-02-13 00:43:00
107,Khatanga,71.9667,102.5,-18.24,89,71,2.71,RU,2022-02-13 00:43:31
108,Upernavik,72.7868,-56.1549,2.55,86,100,36.93,GL,2022-02-13 00:43:32
109,Avarua,-21.2078,-159.775,78.85,73,75,4.61,CK,2022-02-13 00:43:00
110,Butaritari,3.0707,172.7902,83.08,70,100,14.05,KI,2022-02-13 00:43:32
111,Sitka,57.0531,-135.33,42.69,75,100,3.44,US,2022-02-13 00:42:59
112,Teguldet,57.3064,88.1667,-2.0,88,6,10.63,RU,2022-02-13 00:43:33
113,Port-Gentil,-0.7193,8.7815,80.38,81,100,7.87,GA,2022-02-13 00:43:33
114,Avarua,-21.2078,-159.775,78.85,73,75,4.61,CK,2022-02-13 00:43:00
115,Albany,42.6001,-73.9662,34.38,67,91,1.01,US,2022-02-13 00:41:08
116,Ribeira Grande,38.5167,-28.7,61.57,90,100,15.39,PT,2022-02-13 00:43:00
117,Hermanus,-34.4187,19.2345,66.9,80,87,5.82,ZA,2022-02-13 00:43:34
118,Okhtyrka,50.3104,34.8988,22.42,94,6,7.16,UA,2022-02-13 00:43:34
119,Mataura,-46.1927,168.8643,53.47,95,100,4.16,NZ,2022-02-13 00:43:08
120,Punta Arenas,-53.15,-70.9167,51.91,62,0,11.5,CL,2022-02-13 00:41:07
121,Kaitangata,-46.2817,169.8464,55.92,73,100,9.91,NZ,2022-02-13 00:43:35
122,Tahe,52.3333,124.7333,-4.38,83,100,3.47,CN,2022-02-13 00:43:35
123,Luanda,-8.8368,13.2343,76.12,85,100,2.59,AO,2022-02-13 00:40:29
124,Torbay,47.6666,-52.7314,46.27,77,75,27.63,CA,2022-02-13 00:43:36
125,Rikitea,-23.1203,-134.9692,78.84,71,0,16.82,PF,2022-02-13 00:43:00
126,Hilo,19.7297,-155.09,78.53,71,40,9.22,US,2022-02-13 00:39:15
127,Upernavik,72.7868,-56.1549,2.55,86,100,36.93,GL,2022-02-13 00:43:32
128,Kapaa,22.0752,-159.319,79.48,66,75,12.66,US,2022-02-13 00:43:25
129,Sao Miguel Do Araguaia,-13.275,-50.1628,73.08,94,100,2.35,BR,2022-02-13 00:43:37
130,Dikson,73.5069,80.5464,-4.14,87,100,25.05,RU,2022-02-13 00:43:02
131,Vardo,70.3705,31.1107,26.4,67,3,16.8,NO,2022-02-13 00:43:37
132,Aasiaat,68.7098,-52.8699,1.99,82,100,2.04,GL,2022-02-13 00:43:38
133,Nanakuli,21.3906,-158.1547,81.77,47,20,10.36,US,2022-02-13 00:43:38
134,Saint-Philippe,-21.3585,55.7679,78.35,84,2,9.08,RE,2022-02-13 00:43:38
135,Ilulissat,69.2167,-51.1,12.22,85,100,12.66,GL,2022-02-13 00:43:19
136,Flinders,-34.5833,150.8552,77.38,69,33,4.0,AU,2022-02-13 00:43:39
137,Port Hardy,50.6996,-127.4199,49.75,81,75,2.3,CA,2022-02-13 00:42:14
138,Hilo,19.7297,-155.09,78.53,71,40,9.22,US,2022-02-13 00:39:15
139,Sayansk,54.1088,102.1648,-31.56,100,36,2.64,RU,2022-02-13 00:43:40
140,Mataura,-46.1927,168.8643,53.47,95,100,4.16,NZ,2022-02-13 00:43:08
141,Torbay,47.6666,-52.7314,46.27,77,75,27.63,CA,2022-02-13 00:43:36
142,Punta Arenas,-53.15,-70.9167,51.91,62,0,11.5,CL,2022-02-13 00:41:07
143,Busselton,-33.65,115.3333,68.04,50,0,10.92,AU,2022-02-13 00:43:41
144,Hamilton,39.1834,-84.5333,29.03,76,100,9.22,US,2022-02-13 00:42:39
145,Barrow,71.2906,-156.7887,-30.98,98,0,10.36,US,2022-02-13 00:43:23
146,Sangar,63.9242,127.4739,-22.74,98,100,3.09,RU,2022-02-13 00:43:41
147,Aykhal,66.0,111.5,-8.9,78,14,3.89,RU,2022-02-13 00:43:42
148,Thompson,55.7435,-97.8558,-11.04,64,20,5.75,CA,2022-02-13 00:42:15
149,Simpang,-1.2667,104.0833,77.32,91,100,1.7,ID,2022-02-13 00:43:42
150,Laon,49.5667,3.6667,33.67,77,56,6.49,FR,2022-02-13 00:43:43
151,Hobart,-42.8794,147.3294,79.02,44,75,21.85,AU,2022-02-13 00:40:28
152,Dunedin,-45.8742,170.5036,54.81,88,100,8.01,NZ,2022-02-13 00:40:29
153,Arraial Do Cabo,-22.9661,-42.0278,75.07,84,26,4.83,BR,2022-02-13 00:43:21
154,Torbay,47.6666,-52.7314,46.27,77,75,27.63,CA,2022-02-13 00:43:36
155,Adrar,20.5022,-10.0711,61.07,27,56,10.6,MR,2022-02-13 00:43:44
156,Shorapani,42.0898,43.0866,31.59,84,4,4.41,GE,2022-02-13 00:43:44
157,Rucheng,32.3883,120.5553,45.0,73,100,5.86,CN,2022-02-13 00:43:44
158,Albany,42.6001,-73.9662,34.38,67,91,1.01,US,2022-02-13 00:41:08
159,Aleksandrovka,46.8383,32.7612,31.55,83,8,6.6,UA,2022-02-13 00:43:45
160,Alcudia,39.8532,3.1214,51.19,81,19,5.93,ES,2022-02-13 00:41:34
161,Matara,5.9485,80.5353,74.93,88,95,1.83,LK,2022-02-13 00:43:46
162,Thompson,55.7435,-97.8558,-11.04,64,20,5.75,CA,2022-02-13 00:42:15
163,Qaanaaq,77.484,-69.3632,-18.94,48,0,8.77,GL,2022-02-13 00:43:26
164,Airai,-8.9266,125.4092,69.82,70,91,2.89,TL,2022-02-13 00:43:46
165,Avarua,-21.2078,-159.775,78.85,73,75,4.61,CK,2022-02-13 00:43:00
166,Svetlogorsk,52.6333,29.7333,26.58,83,81,9.01,BY,2022-02-13 00:43:47
167,Agadez,19.75,10.25,57.36,22,0,4.36,NE,2022-02-13 00:43:47
168,Khatanga,71.9667,102.5,-18.24,89,71,2.71,RU,2022-02-13 00:43:31
169,Jamestown,42.097,-79.2353,20.3,79,100,10.36,US,2022-02-13 00:42:47
170,Beyneu,45.3167,55.2,38.53,83,100,9.35,KZ,2022-02-13 00:43:48
171,Rikitea,-23.1203,-134.9692,78.84,71,0,16.82,PF,2022-02-13 00:43:00
172,Ponta Do Sol,32.6667,-17.1,63.23,70,0,4.45,PT,2022-02-13 00:43:48
173,Udachnyy,66.4167,112.4,-20.2,100,46,2.53,RU,2022-02-13 00:43:49
174,Punta Arenas,-53.15,-70.9167,51.91,62,0,11.5,CL,2022-02-13 00:41:07
175,Marrakesh,31.6315,-8.0083,55.47,62,100,4.61,MA,2022-02-13 00:40:03
176,Albany,42.6001,-73.9662,34.38,67,91,1.01,US,2022-02-13 00:41:08
177,Mayo,38.8876,-76.5119,54.01,52,0,6.91,US,2022-02-13 00:43:50
178,Rikitea,-23.1203,-134.9692,78.84,71,0,16.82,PF,2022-02-13 00:43:00
179,Kapaa,22.0752,-159.319,79.48,66,75,12.66,US,2022-02-13 00:43:25
180,Chokurdakh,70.6333,147.9167,-2.51,96,100,12.08,RU,2022-02-13 00:43:31
181,Solnechnyy,50.7214,136.6319,13.5,90,100,7.11,RU,2022-02-13 00:43:51
182,Calama,-22.4667,-68.9333,58.26,34,0,6.26,CL,2022-02-13 00:43:51
183,Lagoa,39.05,-27.9833,60.75,92,100,21.03,PT,2022-02-13 00:43:51
184,Asau,46.4333,26.4,27.75,93,32,2.91,RO,2022-02-13 00:43:52
185,Busselton,-33.65,115.3333,68.04,50,0,10.92,AU,2022-02-13 00:43:41
186,Atuona,-9.8,-139.0333,77.67,77,14,12.33,PF,2022-02-13 00:43:03
187,Puerto Ayora,-0.7393,-90.3518,75.54,93,47,1.99,EC,2022-02-13 00:43:01
188,Hilo,19.7297,-155.09,78.53,71,40,9.22,US,2022-02-13 00:39:15
189,Mataura,-46.1927,168.8643,53.47,95,100,4.16,NZ,2022-02-13 00:43:08
190,Longyearbyen,78.2186,15.6401,10.24,72,0,9.22,SJ,2022-02-13 00:42:58
191,Punta Arenas,-53.15,-70.9167,51.91,62,0,11.5,CL,2022-02-13 00:41:07
192,Ust-Kuyga,70.0167,135.6,-20.24,99,96,8.79,RU,2022-02-13 00:43:53
193,Kahului,20.8947,-156.47,82.42,63,40,17.27,US,2022-02-13 00:43:54
194,Portland,45.5234,-122.6762,63.19,33,0,13.0,US,2022-02-13 00:40:33
195,Coahuayana,18.7333,-103.6833,89.08,61,54,2.59,MX,2022-02-13 00:43:55
196,Nikolskoye,59.7035,30.7861,36.72,98,100,9.73,RU,2022-02-13 00:43:55
197,Conceicao Do Araguaia,-8.2578,-49.2647,73.62,96,100,3.6,BR,2022-02-13 00:43:55
198,East London,-33.0153,27.9116,75.09,86,20,2.66,ZA,2022-02-13 00:43:56
199,Komsomolskiy,40.4272,71.7189,38.62,93,100,2.3,UZ,2022-02-13 00:43:56
200,Carnarvon,-24.8667,113.6333,86.07,62,100,6.91,AU,2022-02-13 00:43:56
201,Dikson,73.5069,80.5464,-4.14,87,100,25.05,RU,2022-02-13 00:43:02
202,Busselton,-33.65,115.3333,68.04,50,0,10.92,AU,2022-02-13 00:43:41
203,Rikitea,-23.1203,-134.9692,78.84,71,0,16.82,PF,2022-02-13 00:43:00
204,Hermanus,-34.4187,19.2345,66.9,80,87,5.82,ZA,2022-02-13 00:43:34
205,Saskylakh,71.9167,114.0833,-5.85,75,49,7.74,RU,2022-02-13 00:43:11
206,Harper,4.375,-7.7169,78.44,86,10,6.62,LR,2022-02-13 00:43:57
207,Saint-Philippe,-21.3585,55.7679,78.35,84,2,9.08,RE,2022-02-13 00:43:38
208,Vaini,-21.2,-175.2,86.16,79,20,10.36,TO,2022-02-13 00:43:58
209,Mudanjiang,44.5833,129.6,1.08,90,20,2.51,CN,2022-02-13 00:43:58
210,Rupert,42.6191,-113.6772,37.29,75,0,8.05,US,2022-02-13 00:43:59
211,Rikitea,-23.1203,-134.9692,78.84,71,0,16.82,PF,2022-02-13 00:43:00
212,Rio Grande,-32.035,-52.0986,72.95,86,100,13.27,BR,2022-02-13 00:43:59
213,Grindavik,63.8424,-22.4338,23.47,74,0,8.05,IS,2022-02-13 00:44:00
214,Marsala,37.7966,12.4352,48.99,87,0,2.3,IT,2022-02-13 00:44:00
215,Tasiilaq,65.6145,-37.6368,8.76,66,100,5.28,GL,2022-02-13 00:43:01
216,Kruisfontein,-34.0033,24.7314,69.76,94,100,8.7,ZA,2022-02-13 00:43:14
217,Kapaa,22.0752,-159.319,79.48,66,75,12.66,US,2022-02-13 00:43:25
218,Aboso,5.3617,-1.9473,74.79,92,97,3.89,GH,2022-02-13 00:44:01
219,Coihaique,-45.5752,-72.0662,75.81,53,0,5.75,CL,2022-02-13 00:44:02
220,Conceicao Do Araguaia,-8.2578,-49.2647,73.62,96,100,3.6,BR,2022-02-13 00:43:55
221,Kautokeino,69.0125,23.0412,-16.8,100,28,2.35,NO,2022-02-13 00:44:02
222,Okakarara,-20.5833,17.4333,67.44,79,98,2.28,NA,2022-02-13 00:44:02
223,Kavieng,-2.5744,150.7967,82.49,73,100,4.0,PG,2022-02-13 00:44:03
224,Souillac,-20.5167,57.5167,77.38,100,75,5.75,MU,2022-02-13 00:44:03
225,Hami,42.8,93.45,25.05,58,88,6.87,CN,2022-02-13 00:44:04
226,Qaanaaq,77.484,-69.3632,-18.94,48,0,8.77,GL,2022-02-13 00:43:26
227,Barrow,71.2906,-156.7887,-30.98,98,0,10.36,US,2022-02-13 00:43:23
228,Ugoofaaru,5.6667,73.0,81.55,71,100,5.93,MV,2022-02-13 00:43:26
229,Aklavik,68.2191,-135.0107,-22.97,75,75,6.91,CA,2022-02-13 00:42:19
230,Jumla,29.2747,82.1838,25.36,68,0,7.23,NP,2022-02-13 00:44:05
231,East London,-33.0153,27.9116,75.09,86,20,2.66,ZA,2022-02-13 00:43:56
232,Dikson,73.5069,80.5464,-4.14,87,100,25.05,RU,2022-02-13 00:43:02
233,Hermanus,-34.4187,19.2345,66.9,80,87,5.82,ZA,2022-02-13 00:43:34
234,Leningradskiy,69.3833,178.4167,-17.21,95,92,4.27,RU,2022-02-13 00:44:06
235,Dickinson,29.4608,-95.0513,48.94,76,0,21.85,US,2022-02-13 00:44:06
236,Rikitea,-23.1203,-134.9692,78.84,71,0,16.82,PF,2022-02-13 00:43:00
237,Coihaique,-45.5752,-72.0662,75.81,53,0,5.75,CL,2022-02-13 00:44:02
238,Cherskiy,68.75,161.3,-17.36,97,100,10.36,RU,2022-02-13 00:43:17
239,Cozumel,20.5083,-86.9458,78.94,88,14,3.0,MX,2022-02-13 00:44:07
240,Esso,55.9333,158.7,7.72,92,54,3.8,RU,2022-02-13 00:44:07
241,Castro,-24.7911,-50.0119,61.39,80,0,5.7,BR,2022-02-13 00:44:08
242,Kruisfontein,-34.0033,24.7314,69.76,94,100,8.7,ZA,2022-02-13 00:43:14
243,Geraldton,-28.7667,114.6,75.61,60,0,8.05,AU,2022-02-13 00:44:08
244,Rikitea,-23.1203,-134.9692,78.84,71,0,16.82,PF,2022-02-13 00:43:00
245,Vardo,70.3705,31.1107,26.4,67,3,16.8,NO,2022-02-13 00:43:37
246,Castro,-24.7911,-50.0119,61.39,80,0,5.7,BR,2022-02-13 00:44:08
247,Santa Vitoria Do Palmar,-33.5189,-53.3681,67.33,95,98,9.69,BR,2022-02-13 00:44:09
248,Albany,42.6001,-73.9662,34.38,67,91,1.01,US,2022-02-13 00:41:08
249,Bontang,0.1333,117.5,76.5,86,100,3.78,ID,2022-02-13 00:44:10
250,Qaanaaq,77.484,-69.3632,-18.94,48,0,8.77,GL,2022-02-13 00:43:26
251,Kapaa,22.0752,-159.319,79.48,66,75,12.66,US,2022-02-13 00:43:25
252,Vila Velha,-20.3297,-40.2925,75.94,92,75,1.14,BR,2022-02-13 00:40:23
253,Atuona,-9.8,-139.0333,77.67,77,14,12.33,PF,2022-02-13 00:43:03
254,Ushuaia,-54.8,-68.3,46.06,61,20,20.71,AR,2022-02-13 00:42:36
255,Puerto Padre,21.195,-76.6028,78.01,79,0,11.16,CU,2022-02-13 00:44:11
256,Mar Del Plata,-38.0023,-57.5575,62.87,75,20,7.0,AR,2022-02-13 00:40:48
257,Mar Del Plata,-38.0023,-57.5575,62.87,75,20,7.0,AR,2022-02-13 00:40:48
258,Nanortalik,60.1432,-45.2371,29.32,97,100,10.18,GL,2022-02-13 00:43:10
259,Punta Arenas,-53.15,-70.9167,51.91,62,0,11.5,CL,2022-02-13 00:41:07
260,Belmonte,-15.8631,-38.8828,81.1,83,62,4.54,BR,2022-02-13 00:44:12
261,Salalah,17.0151,54.0924,73.49,64,20,5.75,OM,2022-02-13 00:44:12
262,Barentu,15.1139,37.5928,63.57,68,0,4.34,ER,2022-02-13 00:44:13
263,Nikolskoye,59.7035,30.7861,36.72,98,100,9.73,RU,2022-02-13 00:43:55
264,Atuona,-9.8,-139.0333,77.67,77,14,12.33,PF,2022-02-13 00:43:03
265,Zhanaozen,43.3,52.8,36.68,88,57,9.26,KZ,2022-02-13 00:44:14
266,Iqaluit,63.7506,-68.5145,-22.27,69,75,6.91,CA,2022-02-13 00:44:14
267,Kapaa,22.0752,-159.319,79.48,66,75,12.66,US,2022-02-13 00:43:25
268,Albany,42.6001,-73.9662,34.38,67,91,1.01,US,2022-02-13 00:41:08
269,Karlivka,49.4567,35.1295,20.71,96,6,6.38,UA,2022-02-13 00:44:15
270,Faya,18.3851,42.4509,54.12,64,5,6.67,SA,2022-02-13 00:44:15
271,Castro,-24.7911,-50.0119,61.39,80,0,5.7,BR,2022-02-13 00:44:08
272,Saldanha,-33.0117,17.9442,68.05,90,82,15.39,ZA,2022-02-13 00:44:15
273,Avarua,-21.2078,-159.775,78.85,73,75,4.61,CK,2022-02-13 00:43:00
274,Rikitea,-23.1203,-134.9692,78.84,71,0,16.82,PF,2022-02-13 00:43:00
275,Olinda,-8.0089,-34.8553,83.93,74,40,5.75,BR,2022-02-13 00:40:39
276,Rikitea,-23.1203,-134.9692,78.84,71,0,16.82,PF,2022-02-13 00:43:00
277,Puerto Escondido,15.85,-97.0667,83.23,69,0,5.75,MX,2022-02-13 00:39:48
278,Upernavik,72.7868,-56.1549,2.55,86,100,36.93,GL,2022-02-13 00:43:32
279,Dakar,14.6937,-17.4441,71.73,73,73,9.22,SN,2022-02-13 00:40:29
280,Rikitea,-23.1203,-134.9692,78.84,71,0,16.82,PF,2022-02-13 00:43:00
281,Sutysky,49.0425,28.4173,24.58,83,6,0.85,UA,2022-02-13 00:44:18
282,Saint-Philippe,-21.3585,55.7679,78.35,84,2,9.08,RE,2022-02-13 00:43:38
283,Hithadhoo,-0.6,73.0833,81.19,70,43,11.23,MV,2022-02-13 00:43:19
284,Bredasdorp,-34.5322,20.0403,67.32,83,97,5.75,ZA,2022-02-13 00:44:18
285,Bud,39.447,-86.1758,23.31,78,71,8.01,US,2022-02-13 00:44:19
286,Ushuaia,-54.8,-68.3,46.06,61,20,20.71,AR,2022-02-13 00:42:36
287,Cody,44.5263,-109.0565,39.42,42,0,9.22,US,2022-02-13 00:44:19
288,Geraldton,-28.7667,114.6,75.61,60,0,8.05,AU,2022-02-13 00:44:08
289,Rio Gallegos,-51.6226,-69.2181,64.45,32,75,12.66,AR,2022-02-13 00:44:20
290,Rikitea,-23.1203,-134.9692,78.84,71,0,16.82,PF,2022-02-13 00:43:00
291,Albany,42.6001,-73.9662,34.38,67,91,1.01,US,2022-02-13 00:41:08
292,Rikitea,-23.1203,-134.9692,78.84,71,0,16.82,PF,2022-02-13 00:43:00
293,Petropavlovsk-Kamchatskiy,53.0452,158.6483,9.19,61,75,2.24,RU,2022-02-13 00:44:21
294,Jamestown,42.097,-79.2353,20.3,79,100,10.36,US,2022-02-13 00:42:47
295,Stepnogorsk,52.3544,71.8869,12.52,95,100,8.43,KZ,2022-02-13 00:44:21
296,Hobart,-42.8794,147.3294,79.02,44,75,21.85,AU,2022-02-13 00:40:28
297,Torbay,47.6666,-52.7314,46.27,77,75,27.63,CA,2022-02-13 00:43:36
298,Bantogon,6.5333,124.0333,82.35,65,100,0.76,PH,2022-02-13 00:44:22
299,Yellowknife,62.456,-114.3525,-10.59,83,75,10.36,CA,2022-02-13 00:39:26
300,Iqaluit,63.7506,-68.5145,-22.27,69,75,6.91,CA,2022-02-13 00:44:14
301,Mar Del Plata,-38.0023,-57.5575,62.87,75,20,7.0,AR,2022-02-13 00:40:48
302,Yellowknife,62.456,-114.3525,-10.59,83,75,10.36,CA,2022-02-13 00:39:26
303,Cherskiy,68.75,161.3,-17.36,97,100,10.36,RU,2022-02-13 00:43:17
304,Biak,-0.9131,122.8766,76.41,87,100,4.18,ID,2022-02-13 00:44:23
305,Castro,-24.7911,-50.0119,61.39,80,0,5.7,BR,2022-02-13 00:44:08
306,Nizhnevartovsk,60.9344,76.5531,-6.99,77,0,13.42,RU,2022-02-13 00:44:24
307,Vaini,-21.2,-175.2,86.16,79,20,10.36,TO,2022-02-13 00:43:58
308,Ilulissat,69.2167,-51.1,12.22,85,100,12.66,GL,2022-02-13 00:43:19
309,Saint-Philippe,-21.3585,55.7679,78.35,84,2,9.08,RE,2022-02-13 00:43:38
310,Rikitea,-23.1203,-134.9692,78.84,71,0,16.82,PF,2022-02-13 00:43:00
311,Atuona,-9.8,-139.0333,77.67,77,14,12.33,PF,2022-02-13 00:43:03
312,Rabo De Peixe,37.8,-25.5833,62.28,84,75,18.41,PT,2022-02-13 00:44:25
313,Busselton,-33.65,115.3333,68.04,50,0,10.92,AU,2022-02-13 00:43:41
314,Bismarck,46.8083,-100.7837,12.04,79,40,10.36,US,2022-02-13 00:42:51
315,Kuching,1.55,110.3333,75.42,100,40,5.01,MY,2022-02-13 00:42:21
316,Puerto Ayora,-0.7393,-90.3518,75.54,93,47,1.99,EC,2022-02-13 00:43:01
317,Ancud,-41.8697,-73.8203,67.53,87,37,1.83,CL,2022-02-13 00:44:26
318,Vaini,-21.2,-175.2,86.16,79,20,10.36,TO,2022-02-13 00:43:58
319,Punta Arenas,-53.15,-70.9167,51.91,62,0,11.5,CL,2022-02-13 00:41:07
320,Yellowknife,62.456,-114.3525,-10.59,83,75,10.36,CA,2022-02-13 00:39:26
321,Evensk,61.95,159.2333,-3.23,76,9,5.95,RU,2022-02-13 00:44:27
322,Devils Lake,48.1128,-98.8651,-0.42,71,0,12.66,US,2022-02-13 00:44:27
323,Khatanga,71.9667,102.5,-18.24,89,71,2.71,RU,2022-02-13 00:43:31
324,Road Town,18.4167,-64.6167,73.49,94,75,10.36,VG,2022-02-13 00:44:28
325,Murfreesboro,35.8456,-86.3903,34.39,67,100,9.22,US,2022-02-13 00:40:18
326,Merke,42.8728,73.1786,29.05,81,100,3.96,KZ,2022-02-13 00:44:29
327,Saskylakh,71.9167,114.0833,-5.85,75,49,7.74,RU,2022-02-13 00:43:11
328,Noumea,-22.2763,166.4572,85.98,99,93,6.26,NC,2022-02-13 00:44:29
329,Almaty,43.25,76.95,24.71,86,100,4.47,KZ,2022-02-13 00:40:25
330,Kirakira,-10.4544,161.9205,85.03,69,43,4.03,SB,2022-02-13 00:44:30
331,Rikitea,-23.1203,-134.9692,78.84,71,0,16.82,PF,2022-02-13 00:43:00
332,Cape Town,-33.9258,18.4232,69.89,78,0,10.36,ZA,2022-02-13 00:43:04
333,Hilo,19.7297,-155.09,78.53,71,40,9.22,US,2022-02-13 00:39:15
334,Busselton,-33.65,115.3333,68.04,50,0,10.92,AU,2022-02-13 00:43:41
335,Ilulissat,69.2167,-51.1,12.22,85,100,12.66,GL,2022-02-13 00:43:19
336,Bluff,-46.6,168.3333,53.8,76,100,14.85,NZ,2022-02-13 00:43:02
337,North Bend,43.4065,-124.2243,65.91,59,0,5.75,US,2022-02-13 00:43:15
338,Richards Bay,-28.783,32.0377,71.04,90,1,9.44,ZA,2022-02-13 00:43:15
339,Bairiki,1.3292,172.9752,87.8,62,20,10.36,KI,2022-02-13 00:44:32
340,Bluff,-46.6,168.3333,53.8,76,100,14.85,NZ,2022-02-13 00:43:02
341,Te Anau,-45.4167,167.7167,49.96,82,100,4.61,NZ,2022-02-13 00:44:32
342,Yellowknife,62.456,-114.3525,-10.59,83,75,10.36,CA,2022-02-13 00:39:26
343,Aykhal,66.0,111.5,-8.9,78,14,3.89,RU,2022-02-13 00:43:42
344,Port Alfred,-33.5906,26.891,75.36,93,100,16.15,ZA,2022-02-13 00:42:58
345,Bredasdorp,-34.5322,20.0403,67.32,83,97,5.75,ZA,2022-02-13 00:44:18
346,Busselton,-33.65,115.3333,68.04,50,0,10.92,AU,2022-02-13 00:43:41
347,El Alto,-4.2714,-81.2147,71.37,76,94,7.9,PE,2022-02-13 00:44:33
348,Punta Arenas,-53.15,-70.9167,51.91,62,0,11.5,CL,2022-02-13 00:41:07
349,Hermanus,-34.4187,19.2345,66.9,80,87,5.82,ZA,2022-02-13 00:43:34
350,Samarai,-10.6167,150.6667,82.38,67,20,7.74,PG,2022-02-13 00:44:34
351,Cabo San Lucas,22.8909,-109.9124,78.1,54,38,3.85,MX,2022-02-13 00:41:24
352,Maun,-19.9833,23.4167,67.15,76,83,4.14,BW,2022-02-13 00:44:35
353,Saskylakh,71.9167,114.0833,-5.85,75,49,7.74,RU,2022-02-13 00:43:11
354,Lata,40.1629,-8.3327,46.06,95,47,1.57,PT,2022-02-13 00:44:35
355,Isangel,-19.55,169.2667,86.11,74,75,1.21,VU,2022-02-13 00:44:36
356,Clyde River,70.4692,-68.5914,-16.37,76,100,33.38,CA,2022-02-13 00:44:36
357,Kaitangata,-46.2817,169.8464,55.92,73,100,9.91,NZ,2022-02-13 00:43:35
358,Mackay,-21.15,149.2,82.69,65,75,21.85,AU,2022-02-13 00:44:36
359,Punta Arenas,-53.15,-70.9167,51.91,62,0,11.5,CL,2022-02-13 00:41:07
360,Olavarria,-36.8927,-60.3225,55.76,55,1,1.61,AR,2022-02-13 00:44:37
361,Maniitsoq,65.4167,-52.9,11.26,92,100,1.97,GL,2022-02-13 00:44:37
362,Progreso,21.2833,-89.6667,71.71,84,88,10.25,MX,2022-02-13 00:44:38
363,Ushuaia,-54.8,-68.3,46.06,61,20,20.71,AR,2022-02-13 00:42:36
364,Codrington,-38.2667,141.9667,85.75,25,100,14.05,AU,2022-02-13 00:44:38
365,Boysun,38.2061,67.1986,35.2,93,66,1.86,UZ,2022-02-13 00:44:39
366,Obregon,11.9566,-85.9636,86.09,59,20,15.52,NI,2022-02-13 00:44:39
367,Saint-Philippe,-21.3585,55.7679,78.35,84,2,9.08,RE,2022-02-13 00:43:38
368,Albany,42.6001,-73.9662,34.38,67,91,1.01,US,2022-02-13 00:41:08
369,Kruisfontein,-34.0033,24.7314,69.76,94,100,8.7,ZA,2022-02-13 00:43:14
370,Busselton,-33.65,115.3333,68.04,50,0,10.92,AU,2022-02-13 00:43:41
371,Hobart,-42.8794,147.3294,79.02,44,75,21.85,AU,2022-02-13 00:40:28
372,Cape Town,-33.9258,18.4232,69.89,78,0,10.36,ZA,2022-02-13 00:43:04
373,Sigulda,57.1519,24.8647,32.72,84,100,1.99,LV,2022-02-13 00:44:40
374,Port Hardy,50.6996,-127.4199,49.75,81,75,2.3,CA,2022-02-13 00:42:14
375,Pevek,69.7008,170.3133,-19.34,97,100,8.97,RU,2022-02-13 00:43:14
376,Ushuaia,-54.8,-68.3,46.06,61,20,20.71,AR,2022-02-13 00:42:36
377,New Norfolk,-42.7826,147.0587,78.66,37,100,3.78,AU,2022-02-13 00:44:41
378,Oksfjord,70.2396,22.3479,29.32,82,10,9.28,NO,2022-02-13 00:44:42
379,Soe,-9.8607,124.284,74.89,74,95,3.67,ID,2022-02-13 00:44:42
380,San Cristobal,7.7669,-72.225,73.58,66,63,1.57,VE,2022-02-13 00:44:43
381,Carutapera,-1.195,-46.02,77.16,91,98,4.85,BR,2022-02-13 00:44:43
382,Dikson,73.5069,80.5464,-4.14,87,100,25.05,RU,2022-02-13 00:43:02
383,Atuona,-9.8,-139.0333,77.67,77,14,12.33,PF,2022-02-13 00:43:03
384,Tuatapere,-46.1333,167.6833,53.82,70,100,9.46,NZ,2022-02-13 00:44:44
385,Muli,2.9167,73.5667,80.38,74,100,5.21,MV,2022-02-13 00:44:44
386,Bredasdorp,-34.5322,20.0403,67.32,83,97,5.75,ZA,2022-02-13 00:44:18
387,Hermanus,-34.4187,19.2345,66.9,80,87,5.82,ZA,2022-02-13 00:43:34
388,Longyearbyen,78.2186,15.6401,10.24,72,0,9.22,SJ,2022-02-13 00:42:58
389,Rikitea,-23.1203,-134.9692,78.84,71,0,16.82,PF,2022-02-13 00:43:00
390,Narsaq,60.9167,-46.05,30.42,96,100,7.2,GL,2022-02-13 00:44:45
391,Barrow,71.2906,-156.7887,-30.98,98,0,10.36,US,2022-02-13 00:43:23
392,Haines Junction,60.7522,-137.5108,39.15,45,10,4.61,CA,2022-02-13 00:44:45
393,Arraial Do Cabo,-22.9661,-42.0278,75.07,84,26,4.83,BR,2022-02-13 00:43:21
394,Port Macquarie,-31.4333,152.9167,71.56,54,85,7.47,AU,2022-02-13 00:44:46
395,Albany,42.6001,-73.9662,34.38,67,91,1.01,US,2022-02-13 00:41:08
396,Kyabe,9.4515,18.9449,77.29,14,7,5.55,TD,2022-02-13 00:44:47
397,Imbituba,-28.24,-48.6703,76.89,80,0,11.25,BR,2022-02-13 00:44:47
398,Sur,22.5667,59.5289,68.18,58,0,5.66,OM,2022-02-13 00:44:48
399,Jamestown,42.097,-79.2353,20.3,79,100,10.36,US,2022-02-13 00:42:47
400,Te Anau,-45.4167,167.7167,49.96,82,100,4.61,NZ,2022-02-13 00:44:32
401,Panalingaan,8.7842,117.4231,82.17,72,100,1.9,PH,2022-02-13 00:44:48
402,Ushuaia,-54.8,-68.3,46.06,61,20,20.71,AR,2022-02-13 00:42:36
403,Praia,14.9215,-23.5087,73.94,64,100,19.57,CV,2022-02-13 00:44:49
404,Chokurdakh,70.6333,147.9167,-2.51,96,100,12.08,RU,2022-02-13 00:43:31
405,Taltal,-25.4,-70.4833,68.2,80,5,4.83,CL,2022-02-13 00:44:49
406,Sydney,-33.8679,151.2073,77.36,62,40,14.97,AU,2022-02-13 00:41:39
407,Ushuaia,-54.8,-68.3,46.06,61,20,20.71,AR,2022-02-13 00:42:36
408,Mataura,-46.1927,168.8643,53.47,95,100,4.16,NZ,2022-02-13 00:43:08
409,Hermanus,-34.4187,19.2345,66.9,80,87,5.82,ZA,2022-02-13 00:43:34
410,Lorengau,-2.0226,147.2712,82.58,76,100,1.14,PG,2022-02-13 00:44:50
411,Kaitangata,-46.2817,169.8464,55.92,73,100,9.91,NZ,2022-02-13 00:43:35
412,Butaritari,3.0707,172.7902,83.08,70,100,14.05,KI,2022-02-13 00:43:32
413,Clyde River,70.4692,-68.5914,-16.37,76,100,33.38,CA,2022-02-13 00:44:36
414,Cape Town,-33.9258,18.4232,69.89,78,0,10.36,ZA,2022-02-13 00:43:04
415,Kovernino,57.1253,43.8142,14.23,96,99,7.9,RU,2022-02-13 00:44:51
416,Lompoc,34.6391,-120.4579,82.71,23,0,10.36,US,2022-02-13 00:41:44
417,Saldanha,-33.0117,17.9442,68.05,90,82,15.39,ZA,2022-02-13 00:44:15
418,Tasiilaq,65.6145,-37.6368,8.76,66,100,5.28,GL,2022-02-13 00:43:01
419,Kapaa,22.0752,-159.319,79.48,66,75,12.66,US,2022-02-13 00:43:25
420,Port Elizabeth,-33.918,25.5701,70.09,94,75,23.02,ZA,2022-02-13 00:44:53
421,Mataura,-46.1927,168.8643,53.47,95,100,4.16,NZ,2022-02-13 00:43:08
422,Ushuaia,-54.8,-68.3,46.06,61,20,20.71,AR,2022-02-13 00:42:36
423,Mae Ramat,16.984,98.5166,64.72,60,99,0.94,TH,2022-02-13 00:44:53
424,Mataura,-46.1927,168.8643,53.47,95,100,4.16,NZ,2022-02-13 00:43:08
425,Port Alfred,-33.5906,26.891,75.36,93,100,16.15,ZA,2022-02-13 00:42:58
426,Ushuaia,-54.8,-68.3,46.06,61,20,20.71,AR,2022-02-13 00:42:36
427,Vaini,-21.2,-175.2,86.16,79,20,10.36,TO,2022-02-13 00:43:58
428,Tasiilaq,65.6145,-37.6368,8.76,66,100,5.28,GL,2022-02-13 00:43:01
429,Punta Arenas,-53.15,-70.9167,51.91,62,0,11.5,CL,2022-02-13 00:41:07
430,East London,-33.0153,27.9116,75.09,86,20,2.66,ZA,2022-02-13 00:43:56
431,Vaini,-21.2,-175.2,86.16,79,20,10.36,TO,2022-02-13 00:43:58
432,Thompson,55.7435,-97.8558,-11.04,64,20,5.75,CA,2022-02-13 00:42:15
433,Ibra,22.6906,58.5334,59.56,64,0,2.13,OM,2022-02-13 00:44:55
434,Lima,-12.0432,-77.0282,72.39,75,75,6.91,PE,2022-02-13 00:41:07
435,Hobart,-42.8794,147.3294,79.02,44,75,21.85,AU,2022-02-13 00:40:28
436,Butaritari,3.0707,172.7902,83.08,70,100,14.05,KI,2022-02-13 00:43:32
437,Sechura,-5.5569,-80.8222,74.8,69,100,12.66,PE,2022-02-13 00:44:56
438,Mayo,38.8876,-76.5119,54.01,52,0,6.91,US,2022-02-13 00:43:50
439,Touros,-5.1989,-35.4608,81.5,80,26,9.64,BR,2022-02-13 00:44:56
440,Akdepe,42.0551,59.3788,35.69,80,17,4.9,TM,2022-02-13 00:44:57
441,Tuktoyaktuk,69.4541,-133.0374,-29.2,68,20,4.61,CA,2022-02-13 00:44:57
442,Port Elizabeth,-33.918,25.5701,70.09,94,75,23.02,ZA,2022-02-13 00:44:53
443,Rikitea,-23.1203,-134.9692,78.84,71,0,16.82,PF,2022-02-13 00:43:00
444,Shingu,33.7333,135.9833,47.39,63,100,4.09,JP,2022-02-13 00:44:58
445,Inirida,3.8653,-67.9239,77.16,81,97,2.35,CO,2022-02-13 00:44:58
446,Mataura,-46.1927,168.8643,53.47,95,100,4.16,NZ,2022-02-13 00:43:08
447,Nola,40.922,14.5329,53.55,65,15,15.99,IT,2022-02-13 00:44:59
448,Cayenne,4.9333,-52.3333,78.1,88,0,3.0,GF,2022-02-13 00:44:59
449,Saint-Philippe,-21.3585,55.7679,78.35,84,2,9.08,RE,2022-02-13 00:43:38
450,Saskylakh,71.9167,114.0833,-5.85,75,49,7.74,RU,2022-02-13 00:43:11
451,Vardo,70.3705,31.1107,26.4,67,3,16.8,NO,2022-02-13 00:43:37
452,Nikolskoye,59.7035,30.7861,36.72,98,100,9.73,RU,2022-02-13 00:43:55
453,Tuatapere,-46.1333,167.6833,53.82,70,100,9.46,NZ,2022-02-13 00:44:44
454,Slobidka,47.8869,29.3461,29.57,87,7,3.29,UA,2022-02-13 00:45:00
455,Comodoro Rivadavia,-45.8667,-67.5,76.86,36,0,2.3,AR,2022-02-13 00:40:08
456,Namibe,-15.1961,12.1522,74.34,80,100,2.13,AO,2022-02-13 00:45:01
457,Kruisfontein,-34.0033,24.7314,69.76,94,100,8.7,ZA,2022-02-13 00:43:14
458,New Norfolk,-42.7826,147.0587,78.66,37,100,3.78,AU,2022-02-13 00:44:41
459,Kapaa,22.0752,-159.319,79.48,66,75,12.66,US,2022-02-13 00:43:25
460,Nikolskoye,59.7035,30.7861,36.72,98,100,9.73,RU,2022-02-13 00:43:55
461,New Norfolk,-42.7826,147.0587,78.66,37,100,3.78,AU,2022-02-13 00:44:41
462,Mahebourg,-20.4081,57.7,77.29,100,75,5.75,MU,2022-02-13 00:45:02
463,Hilo,19.7297,-155.09,78.53,71,40,9.22,US,2022-02-13 00:39:15
464,Mataura,-46.1927,168.8643,53.47,95,100,4.16,NZ,2022-02-13 00:43:08
465,Punta Arenas,-53.15,-70.9167,51.91,62,0,11.5,CL,2022-02-13 00:41:07
466,Margate,51.3813,1.3862,44.96,74,100,8.99,GB,2022-02-13 00:45:03
467,Haines Junction,60.7522,-137.5108,39.15,45,10,4.61,CA,2022-02-13 00:44:45
468,Busselton,-33.65,115.3333,68.04,50,0,10.92,AU,2022-02-13 00:43:41
469,Hermanus,-34.4187,19.2345,66.9,80,87,5.82,ZA,2022-02-13 00:43:34
470,Jamestown,42.097,-79.2353,20.3,79,100,10.36,US,2022-02-13 00:42:47
471,Babati,-4.2167,35.75,61.57,91,100,2.17,TZ,2022-02-13 00:45:04
472,Kotelnich,58.3089,48.348,18.57,94,100,7.54,RU,2022-02-13 00:45:05
473,Punta Arenas,-53.15,-70.9167,51.91,62,0,11.5,CL,2022-02-13 00:41:07
474,Asau,46.4333,26.4,27.75,93,32,2.91,RO,2022-02-13 00:43:52
475,Port Macquarie,-31.4333,152.9167,71.56,54,85,7.47,AU,2022-02-13 00:44:46
476,Nedjo,9.5046,35.5019,62.15,57,61,3.87,ET,2022-02-13 00:45:05
477,Bredasdorp,-34.5322,20.0403,67.32,83,97,5.75,ZA,2022-02-13 00:44:18
478,Gyanpur,25.35,82.4667,51.75,58,0,3.47,IN,2022-02-13 00:45:06
479,Puerto Ayora,-0.7393,-90.3518,75.54,93,47,1.99,EC,2022-02-13 00:43:01
480,Mataura,-46.1927,168.8643,53.47,95,100,4.16,NZ,2022-02-13 00:43:08
481,Pevek,69.7008,170.3133,-19.34,97,100,8.97,RU,2022-02-13 00:43:14
482,Georgetown,5.4112,100.3354,78.89,84,20,5.75,MY,2022-02-13 00:43:04
483,Rikitea,-23.1203,-134.9692,78.84,71,0,16.82,PF,2022-02-13 00:43:00
484,Upernavik,72.7868,-56.1549,2.55,86,100,36.93,GL,2022-02-13 00:43:32
485,Soledade,-28.8183,-52.5103,66.99,83,100,2.46,BR,2022-02-13 00:45:07
486,Saskylakh,71.9167,114.0833,-5.85,75,49,7.74,RU,2022-02-13 00:43:11
487,Mar Del Plata,-38.0023,-57.5575,62.87,75,20,7.0,AR,2022-02-13 00:40:48
488,Albany,42.6001,-73.9662,34.38,67,91,1.01,US,2022-02-13 00:41:08
489,Upernavik,72.7868,-56.1549,2.55,86,100,36.93,GL,2022-02-13 00:43:32
490,Punta Arenas,-53.15,-70.9167,51.91,62,0,11.5,CL,2022-02-13 00:41:07
491,Ahipara,-35.1667,173.1667,71.1,67,48,18.32,NZ,2022-02-13 00:45:09
492,Sisimiut,66.9395,-53.6735,10.49,93,100,15.1,GL,2022-02-13 00:45:09
493,Albany,42.6001,-73.9662,34.38,67,91,1.01,US,2022-02-13 00:41:08
494,Lebu,-37.6167,-73.65,58.12,90,100,8.61,CL,2022-02-13 00:43:04
495,Vaini,-21.2,-175.2,86.16,79,20,10.36,TO,2022-02-13 00:43:58
496,Hobart,-42.8794,147.3294,79.02,44,75,21.85,AU,2022-02-13 00:40:28
497,Enid,36.3956,-97.8784,39.15,40,0,6.91,US,2022-02-13 00:43:04
498,Berlevag,70.8578,29.0864,23.56,77,40,19.17,NO,2022-02-13 00:45:11
499,Busselton,-33.65,115.3333,68.04,50,0,10.92,AU,2022-02-13 00:43:41
500,Nikolskoye,59.7035,30.7861,36.72,98,100,9.73,RU,2022-02-13 00:43:55
501,Makakilo City,21.3469,-158.0858,80.35,48,20,10.36,US,2022-02-13 00:45:12
502,Gladstone,-23.85,151.25,85.78,48,75,11.5,AU,2022-02-13 00:45:12
503,Mar Del Plata,-38.0023,-57.5575,62.87,75,20,7.0,AR,2022-02-13 00:40:48
504,Avarua,-21.2078,-159.775,78.85,73,75,4.61,CK,2022-02-13 00:43:00
505,Nago,26.5881,127.9761,73.47,81,97,8.99,JP,2022-02-13 00:45:13
506,Bredasdorp,-34.5322,20.0403,67.32,83,97,5.75,ZA,2022-02-13 00:44:18
507,Bluff,-46.6,168.3333,53.8,76,100,14.85,NZ,2022-02-13 00:43:02
508,Hashtrud,37.4779,47.0508,17.65,96,95,3.94,IR,2022-02-13 00:45:14
509,Rikitea,-23.1203,-134.9692,78.84,71,0,16.82,PF,2022-02-13 00:43:00
510,Marsh Harbour,26.5412,-77.0636,75.07,85,0,8.61,BS,2022-02-13 00:42:11
511,Port Alfred,-33.5906,26.891,75.36,93,100,16.15,ZA,2022-02-13 00:42:58
512,Flinders,-34.5833,150.8552,77.38,69,33,4.0,AU,2022-02-13 00:43:39
513,Yellowknife,62.456,-114.3525,-10.59,83,75,10.36,CA,2022-02-13 00:39:26
514,Nanortalik,60.1432,-45.2371,29.32,97,100,10.18,GL,2022-02-13 00:43:10
515,Bauchi,10.5,10.0,63.43,23,6,5.32,NG,2022-02-13 00:45:15
516,Matay,28.419,30.7792,53.37,43,0,5.93,EG,2022-02-13 00:45:16
517,Sept-Iles,50.2001,-66.3821,27.03,80,100,12.66,CA,2022-02-13 00:42:17
518,Ushuaia,-54.8,-68.3,46.06,61,20,20.71,AR,2022-02-13 00:42:36
519,Airai,-8.9266,125.4092,69.82,70,91,2.89,TL,2022-02-13 00:43:46
520,Dikson,73.5069,80.5464,-4.14,87,100,25.05,RU,2022-02-13 00:43:02
521,Hithadhoo,-0.6,73.0833,81.19,70,43,11.23,MV,2022-02-13 00:43:19
522,Puerto Ayora,-0.7393,-90.3518,75.54,93,47,1.99,EC,2022-02-13 00:43:01
523,Coquimbo,-29.9533,-71.3436,65.88,75,0,1.34,CL,2022-02-13 00:45:17
524,Ushuaia,-54.8,-68.3,46.06,61,20,20.71,AR,2022-02-13 00:42:36
525,Clyde River,70.4692,-68.5914,-16.37,76,100,33.38,CA,2022-02-13 00:44:36
526,Victoria,22.2855,114.1577,64.94,92,100,5.99,HK,2022-02-13 00:45:01
527,Hakodate,41.7758,140.7367,30.51,69,40,13.8,JP,2022-02-13 00:45:18
528,Sechura,-5.5569,-80.8222,74.8,69,100,12.66,PE,2022-02-13 00:44:56
529,Bluff,-46.6,168.3333,53.8,76,100,14.85,NZ,2022-02-13 00:43:02
530,Hermanus,-34.4187,19.2345,66.9,80,87,5.82,ZA,2022-02-13 00:43:34
531,Port Elizabeth,-33.918,25.5701,70.09,94,75,23.02,ZA,2022-02-13 00:44:53
532,New Norfolk,-42.7826,147.0587,78.66,37,100,3.78,AU,2022-02-13 00:44:41
533,Lebu,-37.6167,-73.65,58.12,90,100,8.61,CL,2022-02-13 00:43:04
534,Kodiak,57.79,-152.4072,38.71,65,20,8.05,US,2022-02-13 00:43:09
535,Arraial Do Cabo,-22.9661,-42.0278,75.07,84,26,4.83,BR,2022-02-13 00:43:21
536,Gornopravdinsk,60.05,69.9,0.72,94,100,6.06,RU,2022-02-13 00:45:20
537,Bandarbeyla,9.4942,50.8122,74.19,73,100,11.95,SO,2022-02-13 00:43:23
538,Punta Arenas,-53.15,-70.9167,51.91,62,0,11.5,CL,2022-02-13 00:41:07
539,Rikitea,-23.1203,-134.9692,78.84,71,0,16.82,PF,2022-02-13 00:43:00
540,Laguna,38.421,-121.4238,77.29,42,0,5.75,US,2022-02-13 00:45:21
541,Grahamstown,-33.3042,26.5328,70.0,91,91,19.26,ZA,2022-02-13 00:45:21
542,Naberera,-4.2,36.9333,62.92,90,100,2.04,TZ,2022-02-13 00:45:22
543,Hermanus,-34.4187,19.2345,66.9,80,87,5.82,ZA,2022-02-13 00:43:34
544,Taloqan,36.7361,69.5345,42.42,78,100,2.73,AF,2022-02-13 00:45:22
545,Matara,5.9485,80.5353,74.93,88,95,1.83,LK,2022-02-13 00:43:46
546,Victoria,22.2855,114.1577,64.94,92,100,5.99,HK,2022-02-13 00:45:01
547,Sitka,57.0531,-135.33,42.69,75,100,3.44,US,2022-02-13 00:42:59
548,Nushki,29.5542,66.0215,52.11,27,0,1.9,PK,2022-02-13 00:45:23
549,Hermanus,-34.4187,19.2345,66.9,80,87,5.82,ZA,2022-02-13 00:43:34
550,Albany,42.6001,-73.9662,34.38,67,91,1.01,US,2022-02-13 00:41:08
551,Taoudenni,22.6783,-3.9836,61.79,23,0,11.25,ML,2022-02-13 00:43:25
552,Inhambane,-23.865,35.3833,74.5,76,61,7.81,MZ,2022-02-13 00:45:24
553,Atuona,-9.8,-139.0333,77.67,77,14,12.33,PF,2022-02-13 00:43:03
554,College,64.8569,-147.8028,0.9,73,75,0.0,US,2022-02-13 00:45:25
555,Ancud,-41.8697,-73.8203,67.53,87,37,1.83,CL,2022-02-13 00:44:26
556,Rikitea,-23.1203,-134.9692,78.84,71,0,16.82,PF,2022-02-13 00:43:00
557,Butaritari,3.0707,172.7902,83.08,70,100,14.05,KI,2022-02-13 00:43:32
558,Najran,17.4924,44.1277,59.65,35,0,6.38,SA,2022-02-13 00:45:26
559,Namatanai,-3.6667,152.4333,84.07,70,100,3.33,PG,2022-02-13 00:45:26
560,Hobart,-42.8794,147.3294,79.02,44,75,21.85,AU,2022-02-13 00:40:28
561,Port Hedland,-20.3167,118.5667,80.65,83,24,9.22,AU,2022-02-13 00:45:27
562,Punta Arenas,-53.15,-70.9167,51.91,62,0,11.5,CL,2022-02-13 00:41:07
563,Port Hardy,50.6996,-127.4199,49.75,81,75,2.3,CA,2022-02-13 00:42:14
564,Oranjemund,-28.55,16.4333,65.64,86,0,7.83,NA,2022-02-13 00:42:59
565,Souillac,-20.5167,57.5167,77.38,100,75,5.75,MU,2022-02-13 00:44:03
566,Ushuaia,-54.8,-68.3,46.06,61,20,20.71,AR,2022-02-13 00:42:36
567,Rikitea,-23.1203,-134.9692,78.84,71,0,16.82,PF,2022-02-13 00:43:00
568,Tasiilaq,65.6145,-37.6368,8.76,66,100,5.28,GL,2022-02-13 00:43:01
569,Yellowknife,62.456,-114.3525,-10.59,83,75,10.36,CA,2022-02-13 00:39:26
570,Bhadasar,28.2833,74.3167,60.93,26,0,8.5,IN,2022-02-13 00:45:28
571,Cayenne,4.9333,-52.3333,78.1,88,0,3.0,GF,2022-02-13 00:44:59
572,Albany,42.6001,-73.9662,34.38,67,91,1.01,US,2022-02-13 00:41:08
573,Portland,45.5234,-122.6762,63.19,33,0,13.0,US,2022-02-13 00:40:33
574,Qaanaaq,77.484,-69.3632,-18.94,48,0,8.77,GL,2022-02-13 00:43:26
575,Mpwapwa,-6.35,36.4833,64.26,95,100,0.58,TZ,2022-02-13 00:45:29
576,Rikitea,-23.1203,-134.9692,78.84,71,0,16.82,PF,2022-02-13 00:43:00
577,Carnarvon,-24.8667,113.6333,86.07,62,100,6.91,AU,2022-02-13 00:43:56
578,Yellowknife,62.456,-114.3525,-10.59,83,75,10.36,CA,2022-02-13 00:39:26
579,Albany,42.6001,-73.9662,34.38,67,91,1.01,US,2022-02-13 00:41:08
580,Ushuaia,-54.8,-68.3,46.06,61,20,20.71,AR,2022-02-13 00:42:36
581,San Andres,12.5847,-81.7006,80.62,74,40,13.8,CO,2022-02-13 00:45:31
582,Ramon,16.7842,121.535,75.97,80,96,0.22,PH,2022-02-13 00:45:31
583,Mahonda,-6.45,39.4667,78.91,77,100,5.17,TZ,2022-02-13 00:45:31
584,Tabuk,17.4189,121.4443,75.94,79,100,4.0,PH,2022-02-13 00:45:32
585,Hithadhoo,-0.6,73.0833,81.19,70,43,11.23,MV,2022-02-13 00:43:19
586,Conceicao Do Araguaia,-8.2578,-49.2647,73.62,96,100,3.6,BR,2022-02-13 00:43:55
587,Busselton,-33.65,115.3333,68.04,50,0,10.92,AU,2022-02-13 00:43:41
588,Cherskiy,68.75,161.3,-17.36,97,100,10.36,RU,2022-02-13 00:43:17
589,Husavik,66.0449,-17.3389,21.11,88,52,10.18,IS,2022-02-13 00:45:33
590,Barrow,71.2906,-156.7887,-30.98,98,0,10.36,US,2022-02-13 00:43:23
591,Punta Arenas,-53.15,-70.9167,51.91,62,0,11.5,CL,2022-02-13 00:41:07
592,Pitimbu,-7.4706,-34.8086,81.19,78,31,9.75,BR,2022-02-13 00:45:34
593,Husavik,66.0449,-17.3389,21.11,88,52,10.18,IS,2022-02-13 00:45:33
594,Codrington,-38.2667,141.9667,85.75,25,100,14.05,AU,2022-02-13 00:44:38
595,Fort Nelson,58.8053,-122.7002,17.19,73,75,6.91,CA,2022-02-13 00:43:20
596,Lewistown,40.5992,-77.5714,40.89,81,100,6.91,US,2022-02-13 00:45:35
597,Hithadhoo,-0.6,73.0833,81.19,70,43,11.23,MV,2022-02-13 00:43:19
598,Alugan,12.2188,125.4808,78.62,86,93,14.9,PH,2022-02-13 00:45:35
599,Filingue,14.3521,3.3168,69.51,11,0,8.97,NE,2022-02-13 00:45:36
600,Broken Hill,-31.95,141.4333,85.71,26,100,18.41,AU,2022-02-13 00:45:36
601,Teya,60.3778,92.6267,-18.2,99,29,2.24,RU,2022-02-13 00:45:36
602,East London,-33.0153,27.9116,75.09,86,20,2.66,ZA,2022-02-13 00:43:56
603,Inirida,3.8653,-67.9239,77.16,81,97,2.35,CO,2022-02-13 00:44:58
604,Jatai,-17.8814,-51.7144,69.15,94,5,2.95,BR,2022-02-13 00:45:37
605,Hambantota,6.1241,81.1185,75.54,100,20,3.44,LK,2022-02-13 00:43:12
606,Ushuaia,-54.8,-68.3,46.06,61,20,20.71,AR,2022-02-13 00:42:36
607,Hilo,19.7297,-155.09,78.53,71,40,9.22,US,2022-02-13 00:39:15
608,Mar Del Plata,-38.0023,-57.5575,62.87,75,20,7.0,AR,2022-02-13 00:40:48
609,Hilo,19.7297,-155.09,78.53,71,40,9.22,US,2022-02-13 00:39:15
610,Barcelos,41.5388,-8.6151,47.91,93,17,1.68,PT,2022-02-13 00:45:37
611,Bengkulu,-3.8004,102.2655,79.07,75,89,3.58,ID,2022-02-13 00:45:38
612,Busselton,-33.65,115.3333,68.04,50,0,10.92,AU,2022-02-13 00:43:41
613,Sambava,-14.2667,50.1667,73.15,91,16,5.91,MG,2022-02-13 00:45:39
614,Cape Town,-33.9258,18.4232,69.89,78,0,10.36,ZA,2022-02-13 00:43:04
615,Cape Town,-33.9258,18.4232,69.89,78,0,10.36,ZA,2022-02-13 00:43:04
616,Hermanus,-34.4187,19.2345,66.9,80,87,5.82,ZA,2022-02-13 00:43:34
617,Pontianak,-0.0333,109.3333,75.18,94,40,3.44,ID,2022-02-13 00:45:40
618,Teahupoo,-17.8333,-149.2667,82.36,76,84,12.64,PF,2022-02-13 00:45:40
619,Atuona,-9.8,-139.0333,77.67,77,14,12.33,PF,2022-02-13 00:43:03
620,Rikitea,-23.1203,-134.9692,78.84,71,0,16.82,PF,2022-02-13 00:43:00
621,Isangel,-19.55,169.2667,86.11,74,75,1.21,VU,2022-02-13 00:44:36
622,Atuona,-9.8,-139.0333,77.67,77,14,12.33,PF,2022-02-13 00:43:03
623,Bredasdorp,-34.5322,20.0403,67.32,83,97,5.75,ZA,2022-02-13 00:44:18
624,Ginir,7.1333,40.7,57.27,44,10,2.73,ET,2022-02-13 00:45:41
625,Ancud,-41.8697,-73.8203,67.53,87,37,1.83,CL,2022-02-13 00:44:26
626,Kahului,20.8947,-156.47,82.42,63,40,17.27,US,2022-02-13 00:43:54
627,Tilichiki,60.4667,166.1,-13.41,87,12,8.95,RU,2022-02-13 00:45:42
628,Avarua,-21.2078,-159.775,78.85,73,75,4.61,CK,2022-02-13 00:43:00
629,La Ronge,55.1001,-105.2842,-10.95,70,20,4.61,CA,2022-02-13 00:45:43
630,Mataura,-46.1927,168.8643,53.47,95,100,4.16,NZ,2022-02-13 00:43:08
631,Jamestown,42.097,-79.2353,20.3,79,100,10.36,US,2022-02-13 00:42:47
632,Mehamn,71.0357,27.8492,26.37,70,76,15.73,NO,2022-02-13 00:45:44
633,Longyearbyen,78.2186,15.6401,10.24,72,0,9.22,SJ,2022-02-13 00:42:58
634,Punta Arenas,-53.15,-70.9167,51.91,62,0,11.5,CL,2022-02-13 00:41:07
635,Kaitangata,-46.2817,169.8464,55.92,73,100,9.91,NZ,2022-02-13 00:43:35
636,Lebu,-37.6167,-73.65,58.12,90,100,8.61,CL,2022-02-13 00:43:04
637,Quatre Cocos,-20.2078,57.7625,77.11,86,13,13.71,MU,2022-02-13 00:45:45
638,Kokoda,-8.8785,147.7407,81.18,79,82,1.25,PG,2022-02-13 00:45:46
639,Avarua,-21.2078,-159.775,78.85,73,75,4.61,CK,2022-02-13 00:43:00
640,Asau,46.4333,26.4,27.75,93,32,2.91,RO,2022-02-13 00:43:52
641,Khatanga,71.9667,102.5,-18.24,89,71,2.71,RU,2022-02-13 00:43:31
642,Hilo,19.7297,-155.09,78.53,71,40,9.22,US,2022-02-13 00:39:15
643,Alanya,36.5438,31.9998,44.73,49,45,6.85,TR,2022-02-13 00:45:47
644,Rikitea,-23.1203,-134.9692,78.84,71,0,16.82,PF,2022-02-13 00:43:00
645,Pedasi,7.5333,-80.0333,76.06,70,6,21.21,PA,2022-02-13 00:45:47
646,Virginia Beach,36.8529,-75.978,62.65,54,75,5.75,US,2022-02-13 00:43:26
647,Puerto Ayora,-0.7393,-90.3518,75.54,93,47,1.99,EC,2022-02-13 00:43:01
648,Kaitangata,-46.2817,169.8464,55.92,73,100,9.91,NZ,2022-02-13 00:43:35
649,Vanimo,-2.6741,141.3028,82.85,76,14,1.86,PG,2022-02-13 00:45:48
650,Baykit,61.67,96.37,-16.51,100,47,2.59,RU,2022-02-13 00:45:49
651,Port Alfred,-33.5906,26.891,75.36,93,100,16.15,ZA,2022-02-13 00:42:58
652,Ushuaia,-54.8,-68.3,46.06,61,20,20.71,AR,2022-02-13 00:42:36
653,Gualaceo,-2.9,-78.7833,62.26,94,100,2.93,EC,2022-02-13 00:45:50
654,Sept-Iles,50.2001,-66.3821,27.03,80,100,12.66,CA,2022-02-13 00:42:17
655,Cap Malheureux,-19.9842,57.6142,77.49,88,15,5.99,MU,2022-02-13 00:45:50
656,Ushuaia,-54.8,-68.3,46.06,61,20,20.71,AR,2022-02-13 00:42:36
657,Mananjary,-21.2167,48.3333,73.17,84,93,9.62,MG,2022-02-13 00:45:51
658,Vaini,-21.2,-175.2,86.16,79,20,10.36,TO,2022-02-13 00:43:58
659,Albany,42.6001,-73.9662,34.38,67,91,1.01,US,2022-02-13 00:41:08
660,Puerto Ayora,-0.7393,-90.3518,75.54,93,47,1.99,EC,2022-02-13 00:43:01
661,Avarua,-21.2078,-159.775,78.85,73,75,4.61,CK,2022-02-13 00:43:00
662,Chuy,-33.6971,-53.4616,67.42,94,100,10.58,UY,2022-02-13 00:45:52
663,East London,-33.0153,27.9116,75.09,86,20,2.66,ZA,2022-02-13 00:43:56
664,Ushuaia,-54.8,-68.3,46.06,61,20,20.71,AR,2022-02-13 00:42:36
665,Santa Cruz De Tenerife,28.4682,-16.2546,65.71,87,0,8.05,ES,2022-02-13 00:45:52
666,Souillac,-20.5167,57.5167,77.38,100,75,5.75,MU,2022-02-13 00:44:03
667,Albany,42.6001,-73.9662,34.38,67,91,1.01,US,2022-02-13 00:41:08
668,Butaritari,3.0707,172.7902,83.08,70,100,14.05,KI,2022-02-13 00:43:32
669,Bredasdorp,-34.5322,20.0403,67.32,83,97,5.75,ZA,2022-02-13 00:44:18
670,Punta Arenas,-53.15,-70.9167,51.91,62,0,11.5,CL,2022-02-13 00:41:07
671,Khatanga,71.9667,102.5,-18.24,89,71,2.71,RU,2022-02-13 00:43:31
672,Bredasdorp,-34.5322,20.0403,67.32,83,97,5.75,ZA,2022-02-13 00:44:18
673,Ponta Do Sol,32.6667,-17.1,63.23,70,0,4.45,PT,2022-02-13 00:43:48
674,Avarua,-21.2078,-159.775,78.85,73,75,4.61,CK,2022-02-13 00:43:00
675,Kavieng,-2.5744,150.7967,82.49,73,100,4.0,PG,2022-02-13 00:44:03
676,Hilo,19.7297,-155.09,78.53,71,40,9.22,US,2022-02-13 00:39:15
677,Busselton,-33.65,115.3333,68.04,50,0,10.92,AU,2022-02-13 00:43:41
678,Cidreira,-30.1811,-50.2056,74.37,81,55,19.04,BR,2022-02-13 00:45:55
679,Veraval,20.9,70.3667,67.33,35,2,8.41,IN,2022-02-13 00:45:55
680,Olenino,56.2092,33.4889,28.85,87,100,14.05,RU,2022-02-13 00:45:56
681,Husavik,66.0449,-17.3389,21.11,88,52,10.18,IS,2022-02-13 00:45:33
682,Khatanga,71.9667,102.5,-18.24,89,71,2.71,RU,2022-02-13 00:43:31
683,San Patricio,28.017,-97.5169,53.58,62,0,20.04,US,2022-02-13 00:45:56
684,Ushuaia,-54.8,-68.3,46.06,61,20,20.71,AR,2022-02-13 00:42:36
685,Busselton,-33.65,115.3333,68.04,50,0,10.92,AU,2022-02-13 00:43:41
686,Puerto Ayora,-0.7393,-90.3518,75.54,93,47,1.99,EC,2022-02-13 00:43:01
687,Mattru,7.6244,-11.8332,72.5,97,7,2.64,SL,2022-02-13 00:45:57
688,Provideniya,64.3833,-173.3,-4.5,87,10,4.16,RU,2022-02-13 00:45:58
689,Hemsedal,60.8629,8.5534,32.94,97,100,2.8,NO,2022-02-13 00:45:58
690,Hithadhoo,-0.6,73.0833,81.19,70,43,11.23,MV,2022-02-13 00:43:19
691,Hobart,-42.8794,147.3294,79.02,44,75,21.85,AU,2022-02-13 00:40:28
692,Albany,42.6001,-73.9662,34.38,67,91,1.01,US,2022-02-13 00:41:08
693,Kavaratti,10.5669,72.642,80.56,70,5,4.65,IN,2022-02-13 00:45:59
694,Vaini,-21.2,-175.2,86.16,79,20,10.36,TO,2022-02-13 00:43:58
695,New Norfolk,-42.7826,147.0587,78.66,37,100,3.78,AU,2022-02-13 00:44:41
696,Rikitea,-23.1203,-134.9692,78.84,71,0,16.82,PF,2022-02-13 00:43:00
697,Necochea,-38.5473,-58.7368,57.04,66,0,1.61,AR,2022-02-13 00:46:00
698,East London,-33.0153,27.9116,75.09,86,20,2.66,ZA,2022-02-13 00:43:56
699,Upernavik,72.7868,-56.1549,2.55,86,100,36.93,GL,2022-02-13 00:43:32
700,Brasilia De Minas,-16.2064,-44.4333,67.5,96,100,1.81,BR,2022-02-13 00:46:01
701,Atuona,-9.8,-139.0333,77.67,77,14,12.33,PF,2022-02-13 00:43:03
702,Fuerte Olimpo,-21.0415,-57.8738,75.74,78,86,4.81,PY,2022-02-13 00:46:01
703,Lagoa,39.05,-27.9833,60.75,92,100,21.03,PT,2022-02-13 00:43:51
704,Ushuaia,-54.8,-68.3,46.06,61,20,20.71,AR,2022-02-13 00:42:36
705,Puerto Ayora,-0.7393,-90.3518,75.54,93,47,1.99,EC,2022-02-13 00:43:01
706,Puerto Ayora,-0.7393,-90.3518,75.54,93,47,1.99,EC,2022-02-13 00:43:01
707,Busselton,-33.65,115.3333,68.04,50,0,10.92,AU,2022-02-13 00:43:41
708,Maldonado,-34.6667,-54.9167,63.23,88,100,15.5,UY,2022-02-13 00:41:58
709,Chuy,-33.6971,-53.4616,67.42,94,100,10.58,UY,2022-02-13 00:45:52
710,Banjar,-8.19,114.9675,84.06,92,100,2.33,ID,2022-02-13 00:46:03
711,Maloy,61.9353,5.1136,44.06,93,100,24.74,NO,2022-02-13 00:46:03
712,Richards Bay,-28.783,32.0377,71.04,90,1,9.44,ZA,2022-02-13 00:43:15
713,Jamestown,42.097,-79.2353,20.3,79,100,10.36,US,2022-02-13 00:42:47
714,Saskylakh,71.9167,114.0833,-5.85,75,49,7.74,RU,2022-02-13 00:43:11
715,Aklavik,68.2191,-135.0107,-22.97,75,75,6.91,CA,2022-02-13 00:42:19
716,Rikitea,-23.1203,-134.9692,78.84,71,0,16.82,PF,2022-02-13 00:43:00
717,Saint George,37.1041,-113.5841,66.79,10,0,0.0,US,2022-02-13 00:42:57
718,Mareeba,-17.0,145.4333,83.44,65,23,8.32,AU,2022-02-13 00:46:05
719,Plettenberg,51.2167,7.8833,34.48,87,94,5.28,DE,2022-02-13 00:46:05
720,Shache,38.4167,77.2406,33.37,40,78,4.5,CN,2022-02-13 00:46:06
721,Hermanus,-34.4187,19.2345,66.9,80,87,5.82,ZA,2022-02-13 00:43:34
722,Salinopolis,-0.6136,-47.3561,78.3,87,98,8.66,BR,2022-02-13 00:46:06
723,Bundaberg,-24.85,152.35,83.21,55,40,19.57,AU,2022-02-13 00:46:07
724,Namie,37.4833,141.0,46.96,60,100,2.95,JP,2022-02-13 00:46:07
725,Thompson,55.7435,-97.8558,-11.04,64,20,5.75,CA,2022-02-13 00:42:15
726,Punta Arenas,-53.15,-70.9167,51.91,62,0,11.5,CL,2022-02-13 00:41:07
727,Ushuaia,-54.8,-68.3,46.06,61,20,20.71,AR,2022-02-13 00:42:36
728,Hobart,-42.8794,147.3294,79.02,44,75,21.85,AU,2022-02-13 00:40:28
729,Dhaka,23.7104,90.4074,62.58,77,0,0.0,BD,2022-02-13 00:44:31
730,Honiara,-9.4333,159.95,85.41,70,97,3.27,SB,2022-02-13 00:46:09
731,Hobart,-42.8794,147.3294,79.02,44,75,21.85,AU,2022-02-13 00:40:28
732,Merauke,-8.4667,140.3333,84.78,59,8,11.18,ID,2022-02-13 00:46:09
733,Kapaa,22.0752,-159.319,79.48,66,75,12.66,US,2022-02-13 00:43:25
734,Sterling,39.0062,-77.4286,54.46,47,100,10.36,US,2022-02-13 00:43:25
735,Oranjestad,12.524,-70.027,80.55,69,20,20.71,AW,2022-02-13 00:46:10
736,Hobart,-42.8794,147.3294,79.02,44,75,21.85,AU,2022-02-13 00:40:28
737,Thompson,55.7435,-97.8558,-11.04,64,20,5.75,CA,2022-02-13 00:42:15
738,Iqaluit,63.7506,-68.5145,-22.27,69,75,6.91,CA,2022-02-13 00:44:14
739,Finschhafen,-6.6024,147.8681,82.87,74,44,2.1,PG,2022-02-13 00:46:11
740,Punta Arenas,-53.15,-70.9167,51.91,62,0,11.5,CL,2022-02-13 00:41:07
741,Kapaa,22.0752,-159.319,79.48,66,75,12.66,US,2022-02-13 00:43:25
742,Saskylakh,71.9167,114.0833,-5.85,75,49,7.74,RU,2022-02-13 00:43:11
743,Bluff,-46.6,168.3333,53.8,76,100,14.85,NZ,2022-02-13 00:43:02
744,Puerto Ayora,-0.7393,-90.3518,75.54,93,47,1.99,EC,2022-02-13 00:43:01
745,Yellowknife,62.456,-114.3525,-10.59,83,75,10.36,CA,2022-02-13 00:39:26
746,Vaini,-21.2,-175.2,86.16,79,20,10.36,TO,2022-02-13 00:43:58
747,Punta Arenas,-53.15,-70.9167,51.91,62,0,11.5,CL,2022-02-13 00:41:07
748,New Norfolk,-42.7826,147.0587,78.66,37,100,3.78,AU,2022-02-13 00:44:41
749,Coquimbo,-29.9533,-71.3436,65.88,75,0,1.34,CL,2022-02-13 00:45:17
750,Dikson,73.5069,80.5464,-4.14,87,100,25.05,RU,2022-02-13 00:43:02
751,Ushuaia,-54.8,-68.3,46.06,61,20,20.71,AR,2022-02-13 00:42:36
752,Cidreira,-30.1811,-50.2056,74.37,81,55,19.04,BR,2022-02-13 00:45:55
753,Siilinjarvi,63.0833,27.6667,14.02,92,40,2.3,FI,2022-02-13 00:46:13
754,Na Klang,17.3072,102.1889,75.79,73,90,4.68,TH,2022-02-13 00:46:14
755,Saskylakh,71.9167,114.0833,-5.85,75,49,7.74,RU,2022-02-13 00:43:11
756,Severo-Yeniseyskiy,60.3725,93.0408,-19.44,99,14,3.62,RU,2022-02-13 00:46:14
757,Nanortalik,60.1432,-45.2371,29.32,97,100,10.18,GL,2022-02-13 00:43:10
758,Mataura,-46.1927,168.8643,53.47,95,100,4.16,NZ,2022-02-13 00:43:08
759,Vaini,-21.2,-175.2,86.16,79,20,10.36,TO,2022-02-13 00:43:58
760,Lebu,-37.6167,-73.65,58.12,90,100,8.61,CL,2022-02-13 00:43:04
761,Avarua,-21.2078,-159.775,78.85,73,75,4.61,CK,2022-02-13 00:43:00
762,Yellowknife,62.456,-114.3525,-10.59,83,75,10.36,CA,2022-02-13 00:39:26
763,Busselton,-33.65,115.3333,68.04,50,0,10.92,AU,2022-02-13 00:43:41
764,Hermanus,-34.4187,19.2345,66.9,80,87,5.82,ZA,2022-02-13 00:43:34
765,San Cristobal,7.7669,-72.225,73.58,66,63,1.57,VE,2022-02-13 00:44:43
766,Pevek,69.7008,170.3133,-19.34,97,100,8.97,RU,2022-02-13 00:43:14
767,Bethel,41.3712,-73.414,50.36,59,0,10.36,US,2022-02-13 00:46:16
768,Ushuaia,-54.8,-68.3,46.06,61,20,20.71,AR,2022-02-13 00:42:36
769,Hermanus,-34.4187,19.2345,66.9,80,87,5.82,ZA,2022-02-13 00:43:34
770,Kaitangata,-46.2817,169.8464,55.92,73,100,9.91,NZ,2022-02-13 00:43:35
771,Narsaq,60.9167,-46.05,30.42,96,100,7.2,GL,2022-02-13 00:44:45
772,Rikitea,-23.1203,-134.9692,78.84,71,0,16.82,PF,2022-02-13 00:43:00
773,Porto Novo,6.4965,2.6036,82.22,84,5,7.81,BJ,2022-02-13 00:46:18
774,Northam,51.0333,-4.2167,50.41,96,100,20.51,GB,2022-02-13 00:46:18
775,Lorengau,-2.0226,147.2712,82.58,76,100,1.14,PG,2022-02-13 00:44:50
776,Challapata,-18.9,-66.7667,48.4,73,96,9.17,BO,2022-02-13 00:46:19
777,Ilulissat,69.2167,-51.1,12.22,85,100,12.66,GL,2022-02-13 00:43:19
778,Bilibino,68.0546,166.4372,-21.46,97,99,1.9,RU,2022-02-13 00:46:19
779,Mareeba,-17.0,145.4333,83.44,65,23,8.32,AU,2022-02-13 00:46:05
780,Georgetown,5.4112,100.3354,78.89,84,20,5.75,MY,2022-02-13 00:43:04
781,Rikitea,-23.1203,-134.9692,78.84,71,0,16.82,PF,2022-02-13 00:43:00
782,Namatanai,-3.6667,152.4333,84.07,70,100,3.33,PG,2022-02-13 00:45:26
783,Bhatkal,13.9667,74.5667,74.21,48,6,4.81,IN,2022-02-13 00:46:20
784,Lebu,-37.6167,-73.65,58.12,90,100,8.61,CL,2022-02-13 00:43:04
785,Qasigiannguit,68.8193,-51.1922,12.45,92,100,2.3,GL,2022-02-13 00:46:21
786,Newport,51.5877,-2.9984,50.86,91,100,1.01,GB,2022-02-13 00:42:20
787,Can,40.0333,27.0524,47.28,91,100,11.01,TR,2022-02-13 00:46:21
788,Mataura,-46.1927,168.8643,53.47,95,100,4.16,NZ,2022-02-13 00:43:08
789,Cao Bang,22.6667,106.25,54.75,96,100,2.19,VN,2022-02-13 00:46:22
790,Okhotsk,59.3833,143.3,-6.5,77,4,11.61,RU,2022-02-13 00:46:22
791,Rikitea,-23.1203,-134.9692,78.84,71,0,16.82,PF,2022-02-13 00:43:00
792,Bluff,-46.6,168.3333,53.8,76,100,14.85,NZ,2022-02-13 00:43:02
793,Nanortalik,60.1432,-45.2371,29.32,97,100,10.18,GL,2022-02-13 00:43:10
794,Arnoldstein,46.5461,13.71,33.31,91,15,0.65,AT,2022-02-13 00:46:23
795,Storsteinnes,69.2408,19.2344,17.38,82,100,6.49,NO,2022-02-13 00:46:23
796,Iwaki,37.05,140.8833,47.01,60,90,1.99,JP,2022-02-13 00:46:24
797,Hobart,-42.8794,147.3294,79.02,44,75,21.85,AU,2022-02-13 00:40:28
798,Yellowknife,62.456,-114.3525,-10.59,83,75,10.36,CA,2022-02-13 00:39:26
799,Rikitea,-23.1203,-134.9692,78.84,71,0,16.82,PF,2022-02-13 00:43:00
800,Butaritari,3.0707,172.7902,83.08,70,100,14.05,KI,2022-02-13 00:43:32
801,Clive,41.603,-93.7241,19.94,50,75,3.44,US,2022-02-13 00:44:46
802,Upernavik,72.7868,-56.1549,2.55,86,100,36.93,GL,2022-02-13 00:43:32
803,Poum,-20.2333,164.0167,81.7,73,100,5.32,NC,2022-02-13 00:46:25
804,Kapaa,22.0752,-159.319,79.48,66,75,12.66,US,2022-02-13 00:43:25
805,Yellowknife,62.456,-114.3525,-10.59,83,75,10.36,CA,2022-02-13 00:39:26
806,Bethel,41.3712,-73.414,50.36,59,0,10.36,US,2022-02-13 00:46:16
807,Jamestown,42.097,-79.2353,20.3,79,100,10.36,US,2022-02-13 00:42:47
808,Ushuaia,-54.8,-68.3,46.06,61,20,20.71,AR,2022-02-13 00:42:36
809,Ler,8.3018,30.1418,76.42,32,29,5.03,SS,2022-02-13 00:46:26
810,Kerrville,30.0474,-99.1403,45.45,41,0,6.91,US,2022-02-13 00:46:27
811,Pacific Grove,36.6177,-121.9166,82.8,53,0,4.61,US,2022-02-13 00:46:27
812,Taicheng,38.731,113.228,22.32,81,100,6.26,CN,2022-02-13 00:46:28
813,Laguna,38.421,-121.4238,77.29,42,0,5.75,US,2022-02-13 00:45:21
814,Mehran,33.1222,46.1646,58.48,51,0,5.5,IR,2022-02-13 00:46:28
815,El Tigre,8.8875,-64.2454,77.74,52,80,12.82,VE,2022-02-13 00:46:29
816,Borovoy,55.4333,86.0833,-10.12,84,60,4.47,RU,2022-02-13 00:46:29
817,Mataura,-46.1927,168.8643,53.47,95,100,4.16,NZ,2022-02-13 00:43:08
818,Dingle,10.9995,122.6711,81.46,76,92,10.45,PH,2022-02-13 00:46:02
819,Pauini,-7.7136,-66.9764,75.27,91,68,0.89,BR,2022-02-13 00:46:30
820,Cabo San Lucas,22.8909,-109.9124,78.1,54,38,3.85,MX,2022-02-13 00:41:24
821,Arraial Do Cabo,-22.9661,-42.0278,75.07,84,26,4.83,BR,2022-02-13 00:43:21
822,Parana,-31.732,-60.5238,67.57,59,21,8.05,AR,2022-02-13 00:46:31
823,Severo-Kurilsk,50.6789,156.125,24.82,74,77,7.31,RU,2022-02-13 00:46:12
824,Nanortalik,60.1432,-45.2371,29.32,97,100,10.18,GL,2022-02-13 00:43:10
825,Khatanga,71.9667,102.5,-18.24,89,71,2.71,RU,2022-02-13 00:43:31
826,Codrington,-38.2667,141.9667,85.75,25,100,14.05,AU,2022-02-13 00:44:38
827,Cairns,-16.9167,145.7667,88.07,51,40,18.41,AU,2022-02-13 00:45:05
828,Ushuaia,-54.8,-68.3,46.06,61,20,20.71,AR,2022-02-13 00:42:36
829,Aykhal,66.0,111.5,-8.9,78,14,3.89,RU,2022-02-13 00:43:42
830,Daru,-9.0763,143.2092,83.55,68,18,9.33,PG,2022-02-13 00:46:32
831,Bambous Virieux,-20.3428,57.7575,77.25,100,75,5.75,MU,2022-02-13 00:43:07
832,Bonito,-21.1211,-56.4819,82.13,52,62,6.62,BR,2022-02-13 00:46:33
833,Kapaa,22.0752,-159.319,79.48,66,75,12.66,US,2022-02-13 00:43:25
834,Cabedelo,-6.9811,-34.8339,81.27,76,49,9.35,BR,2022-02-13 00:44:09
835,Bandarbeyla,9.4942,50.8122,74.19,73,100,11.95,SO,2022-02-13 00:43:23
836,Vardo,70.3705,31.1107,26.4,67,3,16.8,NO,2022-02-13 00:43:37
837,Shimoda,34.6667,138.95,48.56,90,100,7.11,JP,2022-02-13 00:46:34
838,Coquimbo,-29.9533,-71.3436,65.88,75,0,1.34,CL,2022-02-13 00:45:17
839,Saurimo,-9.6608,20.3916,62.8,97,93,1.05,AO,2022-02-13 00:46:35
840,Ribeira Grande,38.5167,-28.7,61.57,90,100,15.39,PT,2022-02-13 00:43:00
841,Waipawa,-41.4122,175.5153,52.43,94,100,24.4,NZ,2022-02-13 00:46:35
842,Bredasdorp,-34.5322,20.0403,67.32,83,97,5.75,ZA,2022-02-13 00:44:18
843,Belmonte,-15.8631,-38.8828,81.1,83,62,4.54,BR,2022-02-13 00:44:12
844,Hobart,-42.8794,147.3294,79.02,44,75,21.85,AU,2022-02-13 00:40:28
845,Cabo San Lucas,22.8909,-109.9124,78.1,54,38,3.85,MX,2022-02-13 00:41:24
846,Strezhevoy,60.7333,77.5889,-7.02,98,11,8.55,RU,2022-02-13 00:46:37
847,Ilulissat,69.2167,-51.1,12.22,85,100,12.66,GL,2022-02-13 00:43:19
848,Avanigadda,16.0215,80.9181,71.74,95,30,5.53,IN,2022-02-13 00:46:37
849,Rikitea,-23.1203,-134.9692,78.84,71,0,16.82,PF,2022-02-13 00:43:00
850,Bambari,5.768,20.6757,77.59,24,100,2.93,CF,2022-02-13 00:46:38
851,Geraldton,-28.7667,114.6,75.61,60,0,8.05,AU,2022-02-13 00:44:08
852,Chapais,49.7834,-74.8492,-16.82,100,57,3.74,CA,2022-02-13 00:46:39
853,Hasaki,35.7333,140.8333,39.6,60,100,7.38,JP,2022-02-13 00:46:39
854,Kyaikto,17.3,97.0167,66.79,51,95,3.49,MM,2022-02-13 00:46:39
855,Sazonovo,59.0919,35.2268,30.38,97,100,9.37,RU,2022-02-13 00:46:40
856,Saldanha,-33.0117,17.9442,68.05,90,82,15.39,ZA,2022-02-13 00:44:15
857,Ushuaia,-54.8,-68.3,46.06,61,20,20.71,AR,2022-02-13 00:42:36
858,Ushuaia,-54.8,-68.3,46.06,61,20,20.71,AR,2022-02-13 00:42:36
859,Puerto Ayora,-0.7393,-90.3518,75.54,93,47,1.99,EC,2022-02-13 00:43:01
860,Nikolskoye,59.7035,30.7861,36.72,98,100,9.73,RU,2022-02-13 00:43:55
861,Meulaboh,4.1363,96.1285,77.14,85,95,5.19,ID,2022-02-13 00:46:41
862,Durban,-29.8579,31.0292,76.93,91,0,3.0,ZA,2022-02-13 00:42:52
863,Narsaq,60.9167,-46.05,30.42,96,100,7.2,GL,2022-02-13 00:44:45
864,Abha,18.2164,42.5053,53.85,54,0,8.05,SA,2022-02-13 00:46:42
865,Saint-Philippe,-21.3585,55.7679,78.35,84,2,9.08,RE,2022-02-13 00:43:38
866,Bredasdorp,-34.5322,20.0403,67.32,83,97,5.75,ZA,2022-02-13 00:44:18
867,Nelson Bay,-32.7167,152.15,75.29,68,94,1.99,AU,2022-02-13 00:46:43
868,Torbay,47.6666,-52.7314,46.27,77,75,27.63,CA,2022-02-13 00:43:36
869,Tuatapere,-46.1333,167.6833,53.82,70,100,9.46,NZ,2022-02-13 00:44:44
870,Punta Arenas,-53.15,-70.9167,51.91,62,0,11.5,CL,2022-02-13 00:41:07
871,General Roca,-39.0333,-67.5833,81.0,14,100,10.18,AR,2022-02-13 00:46:44
872,Cape Town,-33.9258,18.4232,69.89,78,0,10.36,ZA,2022-02-13 00:43:04
873,Albany,42.6001,-73.9662,34.38,67,91,1.01,US,2022-02-13 00:41:08
874,Nanortalik,60.1432,-45.2371,29.32,97,100,10.18,GL,2022-02-13 00:43:10
875,Hermanus,-34.4187,19.2345,66.9,80,87,5.82,ZA,2022-02-13 00:43:34
876,Flawil,47.4146,9.1828,35.02,68,100,4.16,CH,2022-02-13 00:46:45
877,Esperance,-33.8667,121.9,66.04,57,29,8.84,AU,2022-02-13 00:46:45
878,Namatanai,-3.6667,152.4333,84.07,70,100,3.33,PG,2022-02-13 00:45:26
879,Kapaa,22.0752,-159.319,79.48,66,75,12.66,US,2022-02-13 00:43:25
880,Pong,19.1493,100.2752,66.99,84,100,1.28,TH,2022-02-13 00:46:46
881,Talnakh,69.4865,88.3972,-8.52,75,15,9.75,RU,2022-02-13 00:43:23
882,Kralendijk,12.15,-68.2667,78.78,69,20,14.97,BQ,2022-02-13 00:46:46
883,Chokurdakh,70.6333,147.9167,-2.51,96,100,12.08,RU,2022-02-13 00:43:31
884,Bredasdorp,-34.5322,20.0403,67.32,83,97,5.75,ZA,2022-02-13 00:44:18
885,Cervo,43.6702,-7.4101,44.19,80,45,9.48,ES,2022-02-13 00:46:47
886,Pemangkat,1.1667,108.9667,78.22,85,85,6.91,ID,2022-02-13 00:46:48
887,Busselton,-33.65,115.3333,68.04,50,0,10.92,AU,2022-02-13 00:43:41
888,Buraydah,26.326,43.975,43.25,46,0,8.48,SA,2022-02-13 00:46:48
889,Jamestown,42.097,-79.2353,20.3,79,100,10.36,US,2022-02-13 00:42:47
890,Cabo San Lucas,22.8909,-109.9124,78.1,54,38,3.85,MX,2022-02-13 00:41:24
891,Vaini,-21.2,-175.2,86.16,79,20,10.36,TO,2022-02-13 00:43:58
892,Codrington,-38.2667,141.9667,85.75,25,100,14.05,AU,2022-02-13 00:44:38
893,Atuona,-9.8,-139.0333,77.67,77,14,12.33,PF,2022-02-13 00:43:03
894,Yumbe,3.4651,31.2469,73.6,35,89,5.88,UG,2022-02-13 00:46:50
895,Saskylakh,71.9167,114.0833,-5.85,75,49,7.74,RU,2022-02-13 00:43:11
896,New Norfolk,-42.7826,147.0587,78.66,37,100,3.78,AU,2022-02-13 00:44:41
897,Belmonte,-15.8631,-38.8828,81.1,83,62,4.54,BR,2022-02-13 00:44:12
898,Butaritari,3.0707,172.7902,83.08,70,100,14.05,KI,2022-02-13 00:43:32
899,Sao Filipe,14.8961,-24.4956,77.52,46,100,20.4,CV,2022-02-13 00:46:51
900,Waipawa,-41.4122,175.5153,52.43,94,100,24.4,NZ,2022-02-13 00:46:35
901,Bandarbeyla,9.4942,50.8122,74.19,73,100,11.95,SO,2022-02-13 00:43:23
902,Baft,29.234,56.6057,38.93,92,98,3.04,IR,2022-02-13 00:46:52
903,East London,-33.0153,27.9116,75.09,86,20,2.66,ZA,2022-02-13 00:43:56
904,Rikitea,-23.1203,-134.9692,78.84,71,0,16.82,PF,2022-02-13 00:43:00
905,Rock Sound,24.9,-76.2,76.5,85,0,11.97,BS,2022-02-13 00:46:53
906,Ushuaia,-54.8,-68.3,46.06,61,20,20.71,AR,2022-02-13 00:42:36
907,Alofi,-19.0595,-169.9187,85.89,70,100,14.97,NU,2022-02-13 00:46:53
908,Barrow,71.2906,-156.7887,-30.98,98,0,10.36,US,2022-02-13 00:43:23
909,Tumpat,6.1978,102.171,78.93,94,20,3.44,MY,2022-02-13 00:46:54
910,Srednekolymsk,67.45,153.6833,-22.79,93,91,6.85,RU,2022-02-13 00:46:55
911,Bluff,-46.6,168.3333,53.8,76,100,14.85,NZ,2022-02-13 00:43:02
912,Cape Town,-33.9258,18.4232,69.89,78,0,10.36,ZA,2022-02-13 00:43:04
913,Derzhavinsk,51.1,66.3167,27.39,95,100,20.18,KZ,2022-02-13 00:46:55
914,Tomatlan,19.9333,-105.25,74.64,48,4,4.88,MX,2022-02-13 00:46:56
915,Port Alfred,-33.5906,26.891,75.36,93,100,16.15,ZA,2022-02-13 00:42:58
916,Martapura,-3.4167,114.85,80.69,78,0,8.05,ID,2022-02-13 00:46:56
917,Takoradi,4.8845,-1.7554,78.21,87,100,6.69,GH,2022-02-13 00:46:57
918,Rikitea,-23.1203,-134.9692,78.84,71,0,16.82,PF,2022-02-13 00:43:00
919,Te Anau,-45.4167,167.7167,49.96,82,100,4.61,NZ,2022-02-13 00:44:32
920,Busselton,-33.65,115.3333,68.04,50,0,10.92,AU,2022-02-13 00:43:41
921,Ushuaia,-54.8,-68.3,46.06,61,20,20.71,AR,2022-02-13 00:42:36
922,Kahului,20.8947,-156.47,82.42,63,40,17.27,US,2022-02-13 00:43:54
923,Port Alfred,-33.5906,26.891,75.36,93,100,16.15,ZA,2022-02-13 00:42:58
924,Bluff,-46.6,168.3333,53.8,76,100,14.85,NZ,2022-02-13 00:43:02
925,Hermanus,-34.4187,19.2345,66.9,80,87,5.82,ZA,2022-02-13 00:43:34
926,Albany,42.6001,-73.9662,34.38,67,91,1.01,US,2022-02-13 00:41:08
927,Camacha,33.0833,-16.3333,59.76,77,40,8.05,PT,2022-02-13 00:46:59
928,Marrakesh,31.6315,-8.0083,55.47,62,100,4.61,MA,2022-02-13 00:40:03
929,Ushuaia,-54.8,-68.3,46.06,61,20,20.71,AR,2022-02-13 00:42:36
930,Busselton,-33.65,115.3333,68.04,50,0,10.92,AU,2022-02-13 00:43:41
931,Vostok,46.4856,135.8833,6.76,90,100,2.89,RU,2022-02-13 00:43:28
932,Sioux Lookout,50.1001,-91.917,-7.22,70,100,2.3,CA,2022-02-13 00:47:00
933,Rikitea,-23.1203,-134.9692,78.84,71,0,16.82,PF,2022-02-13 00:43:00
934,San Patricio,28.017,-97.5169,53.58,62,0,20.04,US,2022-02-13 00:45:56
935,Bengkulu,-3.8004,102.2655,79.07,75,89,3.58,ID,2022-02-13 00:45:38
936,Georgetown,5.4112,100.3354,78.89,84,20,5.75,MY,2022-02-13 00:43:04
937,La Rioja,42.25,-2.5,39.04,87,100,5.44,ES,2022-02-13 00:47:01
938,Tyukhtet,56.5389,89.3011,-2.6,87,8,11.1,RU,2022-02-13 00:47:01
939,Bengkulu,-3.8004,102.2655,79.07,75,89,3.58,ID,2022-02-13 00:45:38
940,Hermanus,-34.4187,19.2345,66.9,80,87,5.82,ZA,2022-02-13 00:43:34
941,Lebu,-37.6167,-73.65,58.12,90,100,8.61,CL,2022-02-13 00:43:04
942,Bethel,41.3712,-73.414,50.36,59,0,10.36,US,2022-02-13 00:46:16
943,Butaritari,3.0707,172.7902,83.08,70,100,14.05,KI,2022-02-13 00:43:32
944,Campos,-21.75,-41.3,72.36,91,100,0.58,BR,2022-02-13 00:45:30
945,Lebu,-37.6167,-73.65,58.12,90,100,8.61,CL,2022-02-13 00:43:04
946,Jamestown,42.097,-79.2353,20.3,79,100,10.36,US,2022-02-13 00:42:47
947,Hermanus,-34.4187,19.2345,66.9,80,87,5.82,ZA,2022-02-13 00:43:34
948,Tomohon,1.3346,124.8392,68.94,77,100,1.77,ID,2022-02-13 00:47:03
949,Rabo De Peixe,37.8,-25.5833,62.28,84,75,18.41,PT,2022-02-13 00:44:25
950,Bredasdorp,-34.5322,20.0403,67.32,83,97,5.75,ZA,2022-02-13 00:44:18
951,Ahipara,-35.1667,173.1667,71.1,67,48,18.32,NZ,2022-02-13 00:45:09
952,Datong,40.0936,113.2914,20.57,92,100,3.74,CN,2022-02-13 00:47:04
953,Broken Hill,-31.95,141.4333,85.71,26,100,18.41,AU,2022-02-13 00:45:36
954,Hobart,-42.8794,147.3294,79.02,44,75,21.85,AU,2022-02-13 00:40:28
955,Busselton,-33.65,115.3333,68.04,50,0,10.92,AU,2022-02-13 00:43:41
956,Egvekinot,66.3167,-179.1667,-15.97,87,11,6.4,RU,2022-02-13 00:47:05
957,Atar,20.5169,-13.0499,65.32,26,17,8.03,MR,2022-02-13 00:47:06
958,Georgetown,5.4112,100.3354,78.89,84,20,5.75,MY,2022-02-13 00:43:04
959,San Ignacio,17.1561,-89.0714,73.15,93,1,4.25,BZ,2022-02-13 00:42:43
960,Kochubey,44.3861,46.5825,41.9,65,100,15.68,RU,2022-02-13 00:47:07
961,Mackay,-21.15,149.2,82.69,65,75,21.85,AU,2022-02-13 00:44:36
962,Broken Hill,-31.95,141.4333,85.71,26,100,18.41,AU,2022-02-13 00:45:36
963,Saint-Philippe,-21.3585,55.7679,78.35,84,2,9.08,RE,2022-02-13 00:43:38
964,Hobart,-42.8794,147.3294,79.02,44,75,21.85,AU,2022-02-13 00:40:28
965,Castro,-24.7911,-50.0119,61.39,80,0,5.7,BR,2022-02-13 00:44:08
966,Vaini,-21.2,-175.2,86.16,79,20,10.36,TO,2022-02-13 00:43:58
967,Rovaniemi,66.5,25.7167,-2.79,84,75,1.14,FI,2022-02-13 00:47:08
968,Tasiilaq,65.6145,-37.6368,8.76,66,100,5.28,GL,2022-02-13 00:43:01
969,Busselton,-33.65,115.3333,68.04,50,0,10.92,AU,2022-02-13 00:43:41
970,Mezhdurechensk,53.6942,88.0603,-10.73,96,5,3.67,RU,2022-02-13 00:47:09
971,Margate,51.3813,1.3862,44.96,74,100,8.99,GB,2022-02-13 00:45:03
972,Rikitea,-23.1203,-134.9692,78.84,71,0,16.82,PF,2022-02-13 00:43:00
973,Mataura,-46.1927,168.8643,53.47,95,100,4.16,NZ,2022-02-13 00:43:08
974,Mar Del Plata,-38.0023,-57.5575,62.87,75,20,7.0,AR,2022-02-13 00:40:48
975,Zhigansk,66.7697,123.3711,-29.94,99,89,4.72,RU,2022-02-13 00:47:10
976,Bluff,-46.6,168.3333,53.8,76,100,14.85,NZ,2022-02-13 00:43:02
977,Mataura,-46.1927,168.8643,53.47,95,100,4.16,NZ,2022-02-13 00:43:08
978,Leninskoye,41.7589,69.3864,35.53,90,98,1.77,KZ,2022-02-13 00:47:10
979,Upernavik,72.7868,-56.1549,2.55,86,100,36.93,GL,2022-02-13 00:43:32
980,Mataura,-46.1927,168.8643,53.47,95,100,4.16,NZ,2022-02-13 00:43:08
981,Barra,-11.0894,-43.1417,73.17,84,62,4.65,BR,2022-02-13 00:47:11
982,Souillac,-20.5167,57.5167,77.38,100,75,5.75,MU,2022-02-13 00:44:03
983,Merauke,-8.4667,140.3333,84.78,59,8,11.18,ID,2022-02-13 00:46:09
984,Rikitea,-23.1203,-134.9692,78.84,71,0,16.82,PF,2022-02-13 00:43:00
985,Paso Blanco,9.1333,-79.2333,82.02,61,20,6.91,PA,2022-02-13 00:47:12
986,Provideniya,64.3833,-173.3,-4.5,87,10,4.16,RU,2022-02-13 00:45:58
987,Sindos,40.6704,22.8055,53.49,71,100,3.0,GR,2022-02-13 00:47:13
988,Qaanaaq,77.484,-69.3632,-18.94,48,0,8.77,GL,2022-02-13 00:43:26
989,Albany,42.6001,-73.9662,34.38,67,91,1.01,US,2022-02-13 00:41:08
990,Krutinka,56.0055,71.5113,1.99,97,100,2.33,RU,2022-02-13 00:47:13
991,Ustye,59.6304,39.736,24.91,85,94,12.12,RU,2022-02-13 00:47:14
992,Male,4.1748,73.5089,80.55,89,75,8.05,MV,2022-02-13 00:47:14
993,Abu Dhabi,24.4667,54.3667,69.82,80,40,10.36,AE,2022-02-13 00:47:15
994,Mar Del Plata,-38.0023,-57.5575,62.87,75,20,7.0,AR,2022-02-13 00:40:48
995,Ponta Do Sol,32.6667,-17.1,63.23,70,0,4.45,PT,2022-02-13 00:43:48
996,Khatanga,71.9667,102.5,-18.24,89,71,2.71,RU,2022-02-13 00:43:31
997,Kovdor,67.5662,30.4758,-5.62,96,6,4.36,RU,2022-02-13 00:47:16
998,Punta Arenas,-53.15,-70.9167,51.91,62,0,11.5,CL,2022-02-13 00:41:07
999,Jacareacanga,-6.2222,-57.7528,73.8,97,100,1.32,BR,2022-02-13 00:47:17
1000,New Norfolk,-42.7826,147.0587,78.66,37,100,3.78,AU,2022-02-13 00:44:41
1001,Port Lincoln,-34.7333,135.8667,78.35,38,100,10.4,AU,2022-02-13 00:43:06
1002,Vadinsk,53.6916,43.0574,9.46,99,84,8.08,RU,2022-02-13 00:47:18
1003,Ambulu,-8.345,113.6058,77.85,83,100,2.46,ID,2022-02-13 00:47:18
1004,Aleksandrov Gay,50.147,48.5704,26.35,97,100,7.29,RU,2022-02-13 00:47:18
1005,Kwakoa,-3.7667,37.7167,69.28,91,100,1.86,TZ,2022-02-13 00:47:19
1006,Busselton,-33.65,115.3333,68.04,50,0,10.92,AU,2022-02-13 00:43:41
1007,Jackson,42.4165,-122.8345,71.47,25,0,0.0,US,2022-02-13 00:46:11
1008,Ulaangom,49.9811,92.0667,-29.31,92,100,3.0,MN,2022-02-13 00:47:20
1009,San Policarpo,12.1791,125.5072,78.93,85,95,15.75,PH,2022-02-13 00:47:20
1010,Nadym,65.5333,72.5167,-11.97,94,12,14.88,RU,2022-02-13 00:47:20
1011,Khasan,42.4308,130.6434,20.82,45,60,10.2,RU,2022-02-13 00:47:21
1012,Kodiak,57.79,-152.4072,38.71,65,20,8.05,US,2022-02-13 00:43:09
1013,Jaffrey,42.814,-72.0231,39.83,63,0,9.22,US,2022-02-13 00:47:21
1014,Hobart,-42.8794,147.3294,79.02,44,75,21.85,AU,2022-02-13 00:40:28
1015,Akdepe,42.0551,59.3788,35.69,80,17,4.9,TM,2022-02-13 00:44:57
1016,Awjilah,29.1081,21.2869,52.83,48,0,4.23,LY,2022-02-13 00:47:22
1017,Matara,5.9485,80.5353,74.93,88,95,1.83,LK,2022-02-13 00:43:46
1018,Bethel,41.3712,-73.414,50.36,59,0,10.36,US,2022-02-13 00:46:16
1019,Laguna,38.421,-121.4238,77.29,42,0,5.75,US,2022-02-13 00:45:21
1020,Castro,-24.7911,-50.0119,61.39,80,0,5.7,BR,2022-02-13 00:44:08
1021,Torbay,47.6666,-52.7314,46.27,77,75,27.63,CA,2022-02-13 00:43:36
1022,Mar Del Plata,-38.0023,-57.5575,62.87,75,20,7.0,AR,2022-02-13 00:40:48
1023,Banjar,-8.19,114.9675,84.06,92,100,2.33,ID,2022-02-13 00:46:03
1024,Provideniya,64.3833,-173.3,-4.5,87,10,4.16,RU,2022-02-13 00:45:58
1025,Hithadhoo,-0.6,73.0833,81.19,70,43,11.23,MV,2022-02-13 00:43:19
1026,Karratha,-20.7377,116.8463,90.01,52,7,13.4,AU,2022-02-13 00:47:24
1027,Amapa,1.0,-52.0,72.41,96,97,2.39,BR,2022-02-13 00:47:24
1028,Arraial Do Cabo,-22.9661,-42.0278,75.07,84,26,4.83,BR,2022-02-13 00:43:21
1029,Puerto Ayora,-0.7393,-90.3518,75.54,93,47,1.99,EC,2022-02-13 00:43:01
1030,Atuona,-9.8,-139.0333,77.67,77,14,12.33,PF,2022-02-13 00:43:03
1031,Anahuac,27.2333,-100.15,57.56,34,9,18.61,MX,2022-02-13 00:47:25
1032,Rikitea,-23.1203,-134.9692,78.84,71,0,16.82,PF,2022-02-13 00:43:00
1033,Miquelon,47.0975,-56.3814,41.0,92,100,33.53,PM,2022-02-13 00:47:26
1034,Sechura,-5.5569,-80.8222,74.8,69,100,12.66,PE,2022-02-13 00:44:56
1035,Bacolod,10.6667,122.95,82.83,66,96,4.45,PH,2022-02-13 00:47:26
1036,Cobija,-11.0267,-68.7692,73.15,98,100,2.06,BO,2022-02-13 00:47:27
1037,Provideniya,64.3833,-173.3,-4.5,87,10,4.16,RU,2022-02-13 00:45:58
1038,Bethel,41.3712,-73.414,50.36,59,0,10.36,US,2022-02-13 00:46:16
1039,Mataura,-46.1927,168.8643,53.47,95,100,4.16,NZ,2022-02-13 00:43:08
1040,Khatanga,71.9667,102.5,-18.24,89,71,2.71,RU,2022-02-13 00:43:31
1041,Chokurdakh,70.6333,147.9167,-2.51,96,100,12.08,RU,2022-02-13 00:43:31
1042,Sigli,5.3848,95.9609,79.14,79,68,4.56,ID,2022-02-13 00:47:28
1043,Nikolskoye,59.7035,30.7861,36.72,98,100,9.73,RU,2022-02-13 00:43:55
1044,Hermanus,-34.4187,19.2345,66.9,80,87,5.82,ZA,2022-02-13 00:43:34
1045,Nhulunbuy,-12.2333,136.7667,88.41,62,40,9.22,AU,2022-02-13 00:47:29
1046,Sao Gabriel,-30.3364,-54.32,70.2,84,60,11.7,BR,2022-02-13 00:47:29
1047,Bagamoyo,-6.4333,38.9,78.78,90,100,2.71,TZ,2022-02-13 00:47:30
1048,Albany,42.6001,-73.9662,34.38,67,91,1.01,US,2022-02-13 00:41:08
1049,Port Alfred,-33.5906,26.891,75.36,93,100,16.15,ZA,2022-02-13 00:42:58
1050,Esperance,-33.8667,121.9,66.04,57,29,8.84,AU,2022-02-13 00:46:45
1051,Christchurch,-43.5333,172.6333,54.91,84,75,12.66,NZ,2022-02-13 00:45:57
1052,Limbus,46.5536,15.5836,35.82,79,0,1.01,SI,2022-02-13 00:47:31
1053,Hithadhoo,-0.6,73.0833,81.19,70,43,11.23,MV,2022-02-13 00:43:19
1054,Barrow,71.2906,-156.7887,-30.98,98,0,10.36,US,2022-02-13 00:43:23
1055,Rikitea,-23.1203,-134.9692,78.84,71,0,16.82,PF,2022-02-13 00:43:00
1056,Kysyl-Syr,63.8986,122.7617,-25.44,100,97,2.86,RU,2022-02-13 00:47:32
1057,Hermanus,-34.4187,19.2345,66.9,80,87,5.82,ZA,2022-02-13 00:43:34
1058,Bambous Virieux,-20.3428,57.7575,77.25,100,75,5.75,MU,2022-02-13 00:43:07
1059,Kavieng,-2.5744,150.7967,82.49,73,100,4.0,PG,2022-02-13 00:44:03
1060,Bataipora,-22.2953,-53.2711,73.94,60,6,4.79,BR,2022-02-13 00:47:33
1061,Mahibadhoo,3.7833,72.9667,80.11,75,100,4.54,MV,2022-02-13 00:47:33
1062,Chake Chake,-5.2459,39.7666,75.94,82,100,4.88,TZ,2022-02-13 00:47:33
1063,Mattru,7.6244,-11.8332,72.5,97,7,2.64,SL,2022-02-13 00:45:57
1064,Chokurdakh,70.6333,147.9167,-2.51,96,100,12.08,RU,2022-02-13 00:43:31
1065,Chokurdakh,70.6333,147.9167,-2.51,96,100,12.08,RU,2022-02-13 00:43:31
1066,Raudeberg,61.9875,5.1352,43.2,92,100,25.01,NO,2022-02-13 00:47:34
1067,Suileng,47.25,127.0833,-5.53,99,93,2.33,CN,2022-02-13 00:47:35
1068,Thompson,55.7435,-97.8558,-11.04,64,20,5.75,CA,2022-02-13 00:42:15
1069,Sitka,57.0531,-135.33,42.69,75,100,3.44,US,2022-02-13 00:42:59
1070,Teya,60.3778,92.6267,-18.2,99,29,2.24,RU,2022-02-13 00:45:36
1071,Gat,31.61,34.7642,54.39,100,0,0.63,IL,2022-02-13 00:47:03
1072,Umm Kaddadah,13.6017,26.6876,58.06,21,0,12.39,SD,2022-02-13 00:47:36
1073,Mataura,-46.1927,168.8643,53.47,95,100,4.16,NZ,2022-02-13 00:43:08
1074,Mar Del Plata,-38.0023,-57.5575,62.87,75,20,7.0,AR,2022-02-13 00:40:48
1075,Kipini,-2.5257,40.5262,77.29,86,95,8.37,KE,2022-02-13 00:47:37
1076,Carnarvon,-24.8667,113.6333,86.07,62,100,6.91,AU,2022-02-13 00:43:56
1077,Katsuura,35.1333,140.3,43.2,63,100,3.0,JP,2022-02-13 00:47:37
1078,Kapaa,22.0752,-159.319,79.48,66,75,12.66,US,2022-02-13 00:43:25
1079,Ratnagiri,16.9833,73.3,72.45,54,97,4.83,IN,2022-02-13 00:47:38
1080,Ushuaia,-54.8,-68.3,46.06,61,20,20.71,AR,2022-02-13 00:42:36
1081,Mataura,-46.1927,168.8643,53.47,95,100,4.16,NZ,2022-02-13 00:43:08
1082,Dunedin,-45.8742,170.5036,54.81,88,100,8.01,NZ,2022-02-13 00:40:29
1083,Hermanus,-34.4187,19.2345,66.9,80,87,5.82,ZA,2022-02-13 00:43:34
1084,Margate,51.3813,1.3862,44.96,74,100,8.99,GB,2022-02-13 00:45:03
1085,Byron Bay,-28.65,153.6167,78.75,77,93,14.09,AU,2022-02-13 00:45:00
1086,Malatap,14.1871,122.5119,76.64,92,100,6.58,PH,2022-02-13 00:47:39
1087,Bredasdorp,-34.5322,20.0403,67.32,83,97,5.75,ZA,2022-02-13 00:44:18
1088,Mar Del Plata,-38.0023,-57.5575,62.87,75,20,7.0,AR,2022-02-13 00:40:48
1089,East London,-33.0153,27.9116,75.09,86,20,2.66,ZA,2022-02-13 00:43:56
1090,Kapaa,22.0752,-159.319,79.48,66,75,12.66,US,2022-02-13 00:43:25
1091,Hermanus,-34.4187,19.2345,66.9,80,87,5.82,ZA,2022-02-13 00:43:34
1092,Topolovgrad,42.0833,26.3333,39.99,83,100,11.5,BG,2022-02-13 00:47:41
1093,Tuktoyaktuk,69.4541,-133.0374,-29.2,68,20,4.61,CA,2022-02-13 00:44:57
1094,Celestun,20.8667,-90.4,74.77,84,99,8.08,MX,2022-02-13 00:47:41
1095,Marsa Matruh,31.3525,27.2453,48.4,81,20,3.44,EG,2022-02-13 00:47:42
1096,Alta Floresta,-9.8756,-56.0861,70.68,97,100,1.54,BR,2022-02-13 00:47:42
1097,Mataura,-46.1927,168.8643,53.47,95,100,4.16,NZ,2022-02-13 00:43:08
1098,Yellowknife,62.456,-114.3525,-10.59,83,75,10.36,CA,2022-02-13 00:39:26
1099,Redcar,54.6166,-1.06,48.52,49,100,13.0,GB,2022-02-13 00:47:43
1100,Qaanaaq,77.484,-69.3632,-18.94,48,0,8.77,GL,2022-02-13 00:43:26
1101,Yellowknife,62.456,-114.3525,-10.59,83,75,10.36,CA,2022-02-13 00:39:26
1102,Constitucion,-35.3333,-72.4167,59.47,87,0,7.78,CL,2022-02-13 00:46:08
1103,Coahuayana,18.7333,-103.6833,89.08,61,54,2.59,MX,2022-02-13 00:43:55
1104,Rikitea,-23.1203,-134.9692,78.84,71,0,16.82,PF,2022-02-13 00:43:00
1105,Bluff,-46.6,168.3333,53.8,76,100,14.85,NZ,2022-02-13 00:43:02
1106,Barrow,71.2906,-156.7887,-30.98,98,0,10.36,US,2022-02-13 00:43:23
1107,Stolac,43.0844,17.9575,49.26,75,29,5.39,BA,2022-02-13 00:47:44
1108,Hobart,-42.8794,147.3294,79.02,44,75,21.85,AU,2022-02-13 00:40:28
1109,Thompson,55.7435,-97.8558,-11.04,64,20,5.75,CA,2022-02-13 00:42:15
1110,Puerto Ayora,-0.7393,-90.3518,75.54,93,47,1.99,EC,2022-02-13 00:43:01
1111,Bluff,-46.6,168.3333,53.8,76,100,14.85,NZ,2022-02-13 00:43:02
1112,Dikson,73.5069,80.5464,-4.14,87,100,25.05,RU,2022-02-13 00:43:02
1113,Kapaa,22.0752,-159.319,79.48,66,75,12.66,US,2022-02-13 00:43:25
1114,Luanda,-8.8368,13.2343,76.12,85,100,2.59,AO,2022-02-13 00:40:29
1115,Arraial Do Cabo,-22.9661,-42.0278,75.07,84,26,4.83,BR,2022-02-13 00:43:21
1116,Temirtau,50.0544,72.9483,21.45,94,100,15.32,KZ,2022-02-13 00:47:46
1117,Sambava,-14.2667,50.1667,73.15,91,16,5.91,MG,2022-02-13 00:45:39
1118,Rikitea,-23.1203,-134.9692,78.84,71,0,16.82,PF,2022-02-13 00:43:00
1119,Chuy,-33.6971,-53.4616,67.42,94,100,10.58,UY,2022-02-13 00:45:52
1120,Migori,-1.0634,34.4731,62.11,88,100,6.13,KE,2022-02-13 00:47:47
1121,Fengzhen,40.4394,113.1536,19.08,94,100,5.32,CN,2022-02-13 00:47:47
1122,Rio De Jesus,7.9844,-81.1631,77.38,67,75,4.34,PA,2022-02-13 00:47:48
1123,Nanortalik,60.1432,-45.2371,29.32,97,100,10.18,GL,2022-02-13 00:43:10
1124,Bredasdorp,-34.5322,20.0403,67.32,83,97,5.75,ZA,2022-02-13 00:44:18
1125,Hamilton,39.1834,-84.5333,29.03,76,100,9.22,US,2022-02-13 00:42:39
1126,Dikson,73.5069,80.5464,-4.14,87,100,25.05,RU,2022-02-13 00:43:02
1127,Wejherowo,54.6057,18.2356,32.83,77,56,5.01,PL,2022-02-13 00:47:49
1128,San Patricio,28.017,-97.5169,53.58,62,0,20.04,US,2022-02-13 00:45:56
1129,Provideniya,64.3833,-173.3,-4.5,87,10,4.16,RU,2022-02-13 00:45:58
1130,New Norfolk,-42.7826,147.0587,78.66,37,100,3.78,AU,2022-02-13 00:44:41
1131,Shihezi,44.3,86.0333,15.64,90,100,3.8,CN,2022-02-13 00:47:50
1132,Kavieng,-2.5744,150.7967,82.49,73,100,4.0,PG,2022-02-13 00:44:03
1133,Vestmannaeyjar,63.4427,-20.2734,32.34,81,88,11.74,IS,2022-02-13 00:47:51
1134,Avarua,-21.2078,-159.775,78.85,73,75,4.61,CK,2022-02-13 00:43:00
1135,Vardo,70.3705,31.1107,26.4,67,3,16.8,NO,2022-02-13 00:43:37
1136,Puerto Ayora,-0.7393,-90.3518,75.54,93,47,1.99,EC,2022-02-13 00:43:01
1137,Hobart,-42.8794,147.3294,79.02,44,75,21.85,AU,2022-02-13 00:40:28
1138,Hermanus,-34.4187,19.2345,66.9,80,87,5.82,ZA,2022-02-13 00:43:34
1139,Komsomolskiy,40.4272,71.7189,38.62,93,100,2.3,UZ,2022-02-13 00:43:56
1140,San Pedro,14.35,121.0167,84.34,77,75,8.05,PH,2022-02-13 00:47:52
1141,Bathsheba,13.2167,-59.5167,77.61,69,75,16.11,BB,2022-02-13 00:47:52
1142,Leningradskiy,69.3833,178.4167,-17.21,95,92,4.27,RU,2022-02-13 00:44:06
1143,Barvinkove,48.9097,37.0205,24.31,91,6,7.4,UA,2022-02-13 00:47:53
1144,Saskylakh,71.9167,114.0833,-5.85,75,49,7.74,RU,2022-02-13 00:43:11
1145,Alto Araguaia,-17.3147,-53.2153,70.61,89,100,3.36,BR,2022-02-13 00:47:53
1146,Arraial Do Cabo,-22.9661,-42.0278,75.07,84,26,4.83,BR,2022-02-13 00:43:21
1147,Raudeberg,61.9875,5.1352,43.2,92,100,25.01,NO,2022-02-13 00:47:34
1148,Tuatapere,-46.1333,167.6833,53.82,70,100,9.46,NZ,2022-02-13 00:44:44
1149,Kodiak,57.79,-152.4072,38.71,65,20,8.05,US,2022-02-13 00:43:09
1150,Ekhabi,53.5102,142.9671,13.98,88,66,8.75,RU,2022-02-13 00:47:55
1151,Ushuaia,-54.8,-68.3,46.06,61,20,20.71,AR,2022-02-13 00:42:36
1152,Atuona,-9.8,-139.0333,77.67,77,14,12.33,PF,2022-02-13 00:43:03
1153,Mahebourg,-20.4081,57.7,77.29,100,75,5.75,MU,2022-02-13 00:45:02
1154,Mora,11.0461,14.1401,68.56,23,55,5.12,CM,2022-02-13 00:47:55
1155,Hermanus,-34.4187,19.2345,66.9,80,87,5.82,ZA,2022-02-13 00:43:34
1156,Okhotsk,59.3833,143.3,-6.5,77,4,11.61,RU,2022-02-13 00:46:22
1157,Busselton,-33.65,115.3333,68.04,50,0,10.92,AU,2022-02-13 00:43:41
1158,Enshi,30.3,109.4833,42.33,88,100,0.16,CN,2022-02-13 00:47:57
1159,Sorland,67.667,12.6934,33.08,85,100,8.16,NO,2022-02-13 00:47:57
1160,Saint-Paul,-21.0096,55.2707,78.89,75,3,1.81,RE,2022-02-13 00:47:57
1161,Surskoye,54.4821,46.7214,8.62,98,63,6.8,RU,2022-02-13 00:47:58
1162,Yellowknife,62.456,-114.3525,-10.59,83,75,10.36,CA,2022-02-13 00:39:26
1163,Port Alfred,-33.5906,26.891,75.36,93,100,16.15,ZA,2022-02-13 00:42:58
1164,Negombo,7.2083,79.8358,73.45,100,40,3.44,LK,2022-02-13 00:47:58
1165,Rikitea,-23.1203,-134.9692,78.84,71,0,16.82,PF,2022-02-13 00:43:00
1166,Vaini,-21.2,-175.2,86.16,79,20,10.36,TO,2022-02-13 00:43:58
1167,Alice Springs,-23.7,133.8833,83.75,23,0,10.36,AU,2022-02-13 00:47:59
1168,Amga,60.8953,131.9608,-19.84,96,100,2.06,RU,2022-02-13 00:47:59
1169,Khandyga,62.6667,135.6,-31.32,98,99,1.39,RU,2022-02-13 00:48:00
1170,Ushuaia,-54.8,-68.3,46.06,61,20,20.71,AR,2022-02-13 00:42:36
1171,New Norfolk,-42.7826,147.0587,78.66,37,100,3.78,AU,2022-02-13 00:44:41
1172,Port Alfred,-33.5906,26.891,75.36,93,100,16.15,ZA,2022-02-13 00:42:58
1173,Mataura,-46.1927,168.8643,53.47,95,100,4.16,NZ,2022-02-13 00:43:08
1174,Monchegorsk,67.9397,32.8739,1.83,91,15,3.0,RU,2022-02-13 00:48:01
1175,Vanimo,-2.6741,141.3028,82.85,76,14,1.86,PG,2022-02-13 00:45:48
1176,Iralaya,15.0,-83.2333,78.89,83,35,9.46,HN,2022-02-13 00:48:02
1177,Avarua,-21.2078,-159.775,78.85,73,75,4.61,CK,2022-02-13 00:43:00
1178,Lenger,42.183,69.8839,26.04,88,72,3.47,KZ,2022-02-13 00:48:02
1179,Belomorsk,64.5232,34.7668,9.34,87,6,8.77,RU,2022-02-13 00:48:03
1180,Cartagena,10.3997,-75.5144,80.22,83,20,9.22,CO,2022-02-13 00:44:33
1181,Bintulu,3.1667,113.0333,73.81,100,40,5.01,MY,2022-02-13 00:48:04
1182,Hohoe,7.1518,0.4736,77.25,82,3,4.03,GH,2022-02-13 00:48:04
1183,Acarau,-2.8856,-40.12,78.55,85,34,9.86,BR,2022-02-13 00:48:05
1184,Tasiilaq,65.6145,-37.6368,8.76,66,100,5.28,GL,2022-02-13 00:43:01
1185,Bengkulu,-3.8004,102.2655,79.07,75,89,3.58,ID,2022-02-13 00:45:38
1186,Qaanaaq,77.484,-69.3632,-18.94,48,0,8.77,GL,2022-02-13 00:43:26
1187,Mwinilunga,-11.7358,24.4293,62.73,99,100,2.15,ZM,2022-02-13 00:48:06
1188,Georgetown,5.4112,100.3354,78.89,84,20,5.75,MY,2022-02-13 00:43:04
1189,Elizabethtown,37.694,-85.8591,28.42,68,100,3.44,US,2022-02-13 00:43:51
1190,Mosetse,-20.75,26.65,67.21,43,39,10.2,BW,2022-02-13 00:48:07
1191,Meghri,38.9029,46.2446,38.89,60,28,7.18,AM,2022-02-13 00:48:07
1192,Jamestown,42.097,-79.2353,20.3,79,100,10.36,US,2022-02-13 00:42:47
1193,Saint George,37.1041,-113.5841,66.79,10,0,0.0,US,2022-02-13 00:42:57
1194,Kapaa,22.0752,-159.319,79.48,66,75,12.66,US,2022-02-13 00:43:25
1195,Gat,31.61,34.7642,54.39,100,0,0.63,IL,2022-02-13 00:47:03
1196,Bluff,-46.6,168.3333,53.8,76,100,14.85,NZ,2022-02-13 00:43:02
1197,Ushuaia,-54.8,-68.3,46.06,61,20,20.71,AR,2022-02-13 00:42:36
1198,Port Elizabeth,-33.918,25.5701,70.09,94,75,23.02,ZA,2022-02-13 00:44:53
1199,Busselton,-33.65,115.3333,68.04,50,0,10.92,AU,2022-02-13 00:43:41
1200,Hermanus,-34.4187,19.2345,66.9,80,87,5.82,ZA,2022-02-13 00:43:34
1201,Tasiilaq,65.6145,-37.6368,8.76,66,100,5.28,GL,2022-02-13 00:43:01
1202,Calabozo,8.9242,-67.4293,84.06,46,9,11.27,VE,2022-02-13 00:48:09
1203,Srednekolymsk,67.45,153.6833,-22.79,93,91,6.85,RU,2022-02-13 00:46:55
1204,New Norfolk,-42.7826,147.0587,78.66,37,100,3.78,AU,2022-02-13 00:44:41
1205,Saint George,37.1041,-113.5841,66.79,10,0,0.0,US,2022-02-13 00:42:57
1206,Paita,-5.0892,-81.1144,73.09,79,96,10.49,PE,2022-02-13 00:48:10
1207,Maceio,-9.6658,-35.7353,80.04,83,20,9.22,BR,2022-02-13 00:44:04
1208,Narsaq,60.9167,-46.05,30.42,96,100,7.2,GL,2022-02-13 00:44:45
1209,Albany,42.6001,-73.9662,34.38,67,91,1.01,US,2022-02-13 00:41:08
1210,East London,-33.0153,27.9116,75.09,86,20,2.66,ZA,2022-02-13 00:43:56
1211,Karasburg,-28.0167,18.75,75.49,55,100,3.24,NA,2022-02-13 00:48:11
1212,Yerbogachen,61.2767,108.0108,-28.03,100,100,1.97,RU,2022-02-13 00:48:12
1213,Albany,42.6001,-73.9662,34.38,67,91,1.01,US,2022-02-13 00:41:08
1214,Kysyl-Syr,63.8986,122.7617,-25.44,100,97,2.86,RU,2022-02-13 00:47:32
1215,Jamestown,42.097,-79.2353,20.3,79,100,10.36,US,2022-02-13 00:42:47
1216,Ushuaia,-54.8,-68.3,46.06,61,20,20.71,AR,2022-02-13 00:42:36
1217,North Battleford,52.7834,-108.2847,3.29,78,0,6.91,CA,2022-02-13 00:43:59
1218,Sakakah,29.9697,40.2064,44.17,43,0,3.85,SA,2022-02-13 00:48:13
1219,Busselton,-33.65,115.3333,68.04,50,0,10.92,AU,2022-02-13 00:43:41
1220,Mar Del Plata,-38.0023,-57.5575,62.87,75,20,7.0,AR,2022-02-13 00:40:48
1221,Sitka,57.0531,-135.33,42.69,75,100,3.44,US,2022-02-13 00:42:59
1222,Codrington,-38.2667,141.9667,85.75,25,100,14.05,AU,2022-02-13 00:44:38
1223,Lasa,46.6166,10.7002,29.66,40,95,1.52,IT,2022-02-13 00:48:14
1224,Tasiilaq,65.6145,-37.6368,8.76,66,100,5.28,GL,2022-02-13 00:43:01
1225,Hobart,-42.8794,147.3294,79.02,44,75,21.85,AU,2022-02-13 00:40:28
1226,Wanning,18.8003,110.3967,71.69,73,98,6.82,CN,2022-02-13 00:48:04
1227,Avarua,-21.2078,-159.775,78.85,73,75,4.61,CK,2022-02-13 00:43:00
1228,Dikson,73.5069,80.5464,-4.14,87,100,25.05,RU,2022-02-13 00:43:02
1229,Mataura,-46.1927,168.8643,53.47,95,100,4.16,NZ,2022-02-13 00:43:08
1230,Hofn,64.2539,-15.2082,23.04,68,100,17.63,IS,2022-02-13 00:43:05
1231,Port-Gentil,-0.7193,8.7815,80.38,81,100,7.87,GA,2022-02-13 00:43:33
1232,Georgetown,5.4112,100.3354,78.89,84,20,5.75,MY,2022-02-13 00:43:04
1233,Hobart,-42.8794,147.3294,79.02,44,75,21.85,AU,2022-02-13 00:40:28
1234,Pacifica,37.6138,-122.4869,76.8,54,20,4.61,US,2022-02-13 00:48:16
1235,Ondjiva,-17.0667,15.7333,68.09,88,100,6.78,AO,2022-02-13 00:48:17
1236,Punta Arenas,-53.15,-70.9167,51.91,62,0,11.5,CL,2022-02-13 00:41:07
1237,Genhe,50.7833,121.5167,-12.28,90,78,1.19,CN,2022-02-13 00:48:17
1238,College,64.8569,-147.8028,0.9,73,75,0.0,US,2022-02-13 00:45:25
1239,Wonthaggi,-38.6044,145.5913,86.94,46,3,14.67,AU,2022-02-13 00:48:18
1240,Arraial Do Cabo,-22.9661,-42.0278,75.07,84,26,4.83,BR,2022-02-13 00:43:21
1241,Santa Cruz De Tenerife,28.4682,-16.2546,65.71,87,0,8.05,ES,2022-02-13 00:45:52
1242,Katsuura,35.1333,140.3,43.2,63,100,3.0,JP,2022-02-13 00:47:37
1243,Qaanaaq,77.484,-69.3632,-18.94,48,0,8.77,GL,2022-02-13 00:43:26
1244,Port Elizabeth,-33.918,25.5701,70.09,94,75,23.02,ZA,2022-02-13 00:44:53
1245,Avarua,-21.2078,-159.775,78.85,73,75,4.61,CK,2022-02-13 00:43:00
1246,Athabasca,54.7169,-113.2854,25.21,92,96,8.57,CA,2022-02-13 00:45:44
1247,Kyzyl-Suu,42.3414,78.0056,21.85,71,89,9.35,KG,2022-02-13 00:48:19
1248,Ilulissat,69.2167,-51.1,12.22,85,100,12.66,GL,2022-02-13 00:43:19
1249,Khatanga,71.9667,102.5,-18.24,89,71,2.71,RU,2022-02-13 00:43:31
1250,Talnakh,69.4865,88.3972,-8.52,75,15,9.75,RU,2022-02-13 00:43:23
1251,Rikitea,-23.1203,-134.9692,78.84,71,0,16.82,PF,2022-02-13 00:43:00
1252,Bluff,-46.6,168.3333,53.8,76,100,14.85,NZ,2022-02-13 00:43:02
1253,Busselton,-33.65,115.3333,68.04,50,0,10.92,AU,2022-02-13 00:43:41
1254,Ugoofaaru,5.6667,73.0,81.55,71,100,5.93,MV,2022-02-13 00:43:26
1255,Saldanha,-33.0117,17.9442,68.05,90,82,15.39,ZA,2022-02-13 00:44:15
1256,Hambantota,6.1241,81.1185,75.54,100,20,3.44,LK,2022-02-13 00:43:12
1257,Norman Wells,65.282,-126.8329,-12.96,70,75,4.61,CA,2022-02-13 00:48:21
1258,Puerto Ayora,-0.7393,-90.3518,75.54,93,47,1.99,EC,2022-02-13 00:43:01
1259,Nizwa,22.9333,57.5333,62.22,40,0,0.54,OM,2022-02-13 00:48:21
1260,Albany,42.6001,-73.9662,34.38,67,91,1.01,US,2022-02-13 00:41:08
1261,Hami,42.8,93.45,25.05,58,88,6.87,CN,2022-02-13 00:44:04
1262,Zhezkazgan,47.8043,67.7144,25.16,94,100,15.82,KZ,2022-02-13 00:47:07
1263,Muroto,33.2833,134.15,44.64,88,100,13.51,JP,2022-02-13 00:48:22
1264,San Carlos De Bariloche,-41.1456,-71.3082,76.75,13,0,2.3,AR,2022-02-13 00:48:23
1265,Puerto Ayora,-0.7393,-90.3518,75.54,93,47,1.99,EC,2022-02-13 00:43:01
1266,Cape Town,-33.9258,18.4232,69.89,78,0,10.36,ZA,2022-02-13 00:43:04
1267,Tuktoyaktuk,69.4541,-133.0374,-29.2,68,20,4.61,CA,2022-02-13 00:44:57
1268,High Level,58.5169,-117.136,6.91,85,100,5.75,CA,2022-02-13 00:45:20
1269,Mandurah,-32.55,115.7,76.15,53,0,10.29,AU,2022-02-13 00:48:24
1270,Abha,18.2164,42.5053,53.85,54,0,8.05,SA,2022-02-13 00:46:42
1271,Cabo San Lucas,22.8909,-109.9124,78.1,54,38,3.85,MX,2022-02-13 00:41:24
1272,Tasiilaq,65.6145,-37.6368,8.76,66,100,5.28,GL,2022-02-13 00:43:01
1273,Bredasdorp,-34.5322,20.0403,67.32,83,97,5.75,ZA,2022-02-13 00:44:18
1274,Dikson,73.5069,80.5464,-4.14,87,100,25.05,RU,2022-02-13 00:43:02
1275,Griffith,41.5284,-87.4237,18.09,67,100,11.5,US,2022-02-13 00:48:25
1276,Faya,18.3851,42.4509,54.12,64,5,6.67,SA,2022-02-13 00:44:15
1277,Saint-Philippe,-21.3585,55.7679,78.35,84,2,9.08,RE,2022-02-13 00:43:38
1278,Port-Cartier,50.0334,-66.8654,26.71,85,100,16.24,CA,2022-02-13 00:48:26
1279,Carnarvon,-24.8667,113.6333,86.07,62,100,6.91,AU,2022-02-13 00:43:56
1280,Albany,42.6001,-73.9662,34.38,67,91,1.01,US,2022-02-13 00:41:08
1281,Longyearbyen,78.2186,15.6401,10.24,72,0,9.22,SJ,2022-02-13 00:42:58
1282,Thompson,55.7435,-97.8558,-11.04,64,20,5.75,CA,2022-02-13 00:42:15
1283,Mataura,-46.1927,168.8643,53.47,95,100,4.16,NZ,2022-02-13 00:43:08
1284,Tiksi,71.6872,128.8694,-7.17,88,100,15.46,RU,2022-02-13 00:48:27
1285,Barrow,71.2906,-156.7887,-30.98,98,0,10.36,US,2022-02-13 00:43:23
1286,Port Elizabeth,-33.918,25.5701,70.09,94,75,23.02,ZA,2022-02-13 00:44:53
1287,Kodiak,57.79,-152.4072,38.71,65,20,8.05,US,2022-02-13 00:43:09
1288,Arvin,35.2091,-118.8284,84.33,17,1,9.51,US,2022-02-13 00:48:28
1289,Hilo,19.7297,-155.09,78.53,71,40,9.22,US,2022-02-13 00:39:15
1290,Pemba,-12.974,40.5178,75.9,94,75,5.75,MZ,2022-02-13 00:48:28
1291,Punta Arenas,-53.15,-70.9167,51.91,62,0,11.5,CL,2022-02-13 00:41:07
1292,Bathsheba,13.2167,-59.5167,77.61,69,75,16.11,BB,2022-02-13 00:47:52
1293,Kapaa,22.0752,-159.319,79.48,66,75,12.66,US,2022-02-13 00:43:25
1294,Ushuaia,-54.8,-68.3,46.06,61,20,20.71,AR,2022-02-13 00:42:36
1295,Pevek,69.7008,170.3133,-19.34,97,100,8.97,RU,2022-02-13 00:43:14
1296,Yershov,51.3513,48.2766,16.59,97,58,7.16,RU,2022-02-13 00:48:29
1297,Bandarbeyla,9.4942,50.8122,74.19,73,100,11.95,SO,2022-02-13 00:43:23
1298,Castro,-24.7911,-50.0119,61.39,80,0,5.7,BR,2022-02-13 00:44:08
1299,Clarence Town,-32.5833,151.7833,78.82,45,92,5.17,AU,2022-02-13 00:48:30
1300,Victoria,22.2855,114.1577,64.94,92,100,5.99,HK,2022-02-13 00:45:01
1301,Punta Arenas,-53.15,-70.9167,51.91,62,0,11.5,CL,2022-02-13 00:41:07
1302,Kamenka,51.3223,42.7678,14.38,97,31,8.01,RU,2022-02-13 00:47:45
1303,Aykhal,66.0,111.5,-8.9,78,14,3.89,RU,2022-02-13 00:43:42
1304,Vaini,-21.2,-175.2,86.16,79,20,10.36,TO,2022-02-13 00:43:58
1305,Ribeira Grande,38.5167,-28.7,61.57,90,100,15.39,PT,2022-02-13 00:43:00
1306,Tual,-5.6667,132.75,81.59,73,8,3.85,ID,2022-02-13 00:48:31
1307,Bambous Virieux,-20.3428,57.7575,77.25,100,75,5.75,MU,2022-02-13 00:43:07
1308,Sakakah,29.9697,40.2064,44.17,43,0,3.85,SA,2022-02-13 00:48:13
1309,Provideniya,64.3833,-173.3,-4.5,87,10,4.16,RU,2022-02-13 00:45:58
1310,Bluff,-46.6,168.3333,53.8,76,100,14.85,NZ,2022-02-13 00:43:02
1311,Busselton,-33.65,115.3333,68.04,50,0,10.92,AU,2022-02-13 00:43:41
1312,Hilo,19.7297,-155.09,78.53,71,40,9.22,US,2022-02-13 00:39:15
1313,Kaitangata,-46.2817,169.8464,55.92,73,100,9.91,NZ,2022-02-13 00:43:35
1314,Padang,-0.9492,100.3543,77.05,72,100,2.57,ID,2022-02-13 00:48:33
1315,Ushuaia,-54.8,-68.3,46.06,61,20,20.71,AR,2022-02-13 00:42:36
1316,Mataura,-46.1927,168.8643,53.47,95,100,4.16,NZ,2022-02-13 00:43:08
1317,Lahat,-3.8,103.5333,76.84,79,96,1.36,ID,2022-02-13 00:48:34
1318,Albany,42.6001,-73.9662,34.38,67,91,1.01,US,2022-02-13 00:41:08
1319,Albany,42.6001,-73.9662,34.38,67,91,1.01,US,2022-02-13 00:41:08
1320,Severo-Yeniseyskiy,60.3725,93.0408,-19.44,99,14,3.62,RU,2022-02-13 00:46:14
1321,Port Lincoln,-34.7333,135.8667,78.35,38,100,10.4,AU,2022-02-13 00:43:06
1322,Severo-Kurilsk,50.6789,156.125,24.82,74,77,7.31,RU,2022-02-13 00:46:12
1323,Bredasdorp,-34.5322,20.0403,67.32,83,97,5.75,ZA,2022-02-13 00:44:18
1324,Thompson,55.7435,-97.8558,-11.04,64,20,5.75,CA,2022-02-13 00:42:15
1325,Derzhavinsk,51.1,66.3167,27.39,95,100,20.18,KZ,2022-02-13 00:46:55
1326,Udachnyy,66.4167,112.4,-20.2,100,46,2.53,RU,2022-02-13 00:43:49
1327,Marsa Matruh,31.3525,27.2453,48.4,81,20,3.44,EG,2022-02-13 00:47:42
1328,Hongjiang,27.11,109.9956,39.24,98,100,2.64,CN,2022-02-13 00:48:36
1329,Nikolskoye,59.7035,30.7861,36.72,98,100,9.73,RU,2022-02-13 00:43:55
1330,Qaanaaq,77.484,-69.3632,-18.94,48,0,8.77,GL,2022-02-13 00:43:26
1331,San Patricio,28.017,-97.5169,53.58,62,0,20.04,US,2022-02-13 00:45:56
1332,Tarata,-17.6167,-66.0167,56.62,87,100,7.14,BO,2022-02-13 00:48:37
1333,Wamba,8.9333,8.6,73.35,17,34,4.03,NG,2022-02-13 00:48:38
1334,Carnarvon,-24.8667,113.6333,86.07,62,100,6.91,AU,2022-02-13 00:43:56
1335,New Norfolk,-42.7826,147.0587,78.66,37,100,3.78,AU,2022-02-13 00:44:41
1336,Vilyuysk,63.7553,121.6247,-24.77,100,100,3.27,RU,2022-02-13 00:48:39
1337,Ushuaia,-54.8,-68.3,46.06,61,20,20.71,AR,2022-02-13 00:42:36
1338,Bambanglipuro,-7.95,110.2833,65.61,82,100,4.81,ID,2022-02-13 00:48:39
1339,Monrovia,6.3005,-10.7969,78.57,89,0,6.91,LR,2022-02-13 00:44:18
1340,Luderitz,-26.6481,15.1594,72.63,67,4,10.94,NA,2022-02-13 00:48:40
1341,Punta Arenas,-53.15,-70.9167,51.91,62,0,11.5,CL,2022-02-13 00:41:07
1342,New Norfolk,-42.7826,147.0587,78.66,37,100,3.78,AU,2022-02-13 00:44:41
1343,Ushuaia,-54.8,-68.3,46.06,61,20,20.71,AR,2022-02-13 00:42:36
1344,Telhara,21.0269,76.8389,62.38,27,5,7.16,IN,2022-02-13 00:48:40
1345,Ushuaia,-54.8,-68.3,46.06,61,20,20.71,AR,2022-02-13 00:42:36
1346,Saint-Philippe,-21.3585,55.7679,78.35,84,2,9.08,RE,2022-02-13 00:43:38
1347,Sambava,-14.2667,50.1667,73.15,91,16,5.91,MG,2022-02-13 00:45:39
1348,Ribeira Grande,38.5167,-28.7,61.57,90,100,15.39,PT,2022-02-13 00:43:00
1349,Bredasdorp,-34.5322,20.0403,67.32,83,97,5.75,ZA,2022-02-13 00:44:18
1350,Ushuaia,-54.8,-68.3,46.06,61,20,20.71,AR,2022-02-13 00:42:36
1351,Rikitea,-23.1203,-134.9692,78.84,71,0,16.82,PF,2022-02-13 00:43:00
1352,Sanary-Sur-Mer,43.1178,5.8001,50.94,59,100,4.0,FR,2022-02-13 00:45:46
1353,Liverpool,53.4106,-2.9779,49.62,91,75,7.0,GB,2022-02-13 00:47:21
1354,East London,-33.0153,27.9116,75.09,86,20,2.66,ZA,2022-02-13 00:43:56
1355,Yellowknife,62.456,-114.3525,-10.59,83,75,10.36,CA,2022-02-13 00:39:26
1356,Mmathubudukwane,-24.6,26.4333,66.72,44,12,5.73,BW,2022-02-13 00:48:43
1357,Bredasdorp,-34.5322,20.0403,67.32,83,97,5.75,ZA,2022-02-13 00:44:18
1358,Geraldton,-28.7667,114.6,75.61,60,0,8.05,AU,2022-02-13 00:44:08
1359,Siilinjarvi,63.0833,27.6667,14.02,92,40,2.3,FI,2022-02-13 00:46:13
1360,Ribeira Grande,38.5167,-28.7,61.57,90,100,15.39,PT,2022-02-13 00:43:00
1361,Ushuaia,-54.8,-68.3,46.06,61,20,20.71,AR,2022-02-13 00:42:36
1362,Port Alfred,-33.5906,26.891,75.36,93,100,16.15,ZA,2022-02-13 00:42:58
1363,Ribeira Grande,38.5167,-28.7,61.57,90,100,15.39,PT,2022-02-13 00:43:00
1364,Thompson,55.7435,-97.8558,-11.04,64,20,5.75,CA,2022-02-13 00:42:15
1365,Zeya,53.75,127.2667,0.48,73,94,4.0,RU,2022-02-13 00:48:44
1366,Saint-Augustin,51.226,-58.6502,32.77,98,100,11.16,CA,2022-02-13 00:48:45
1367,Cidreira,-30.1811,-50.2056,74.37,81,55,19.04,BR,2022-02-13 00:45:55
1368,Hilo,19.7297,-155.09,78.53,71,40,9.22,US,2022-02-13 00:39:15
1369,Ribeira Grande,38.5167,-28.7,61.57,90,100,15.39,PT,2022-02-13 00:43:00
1370,Tura,25.5198,90.2201,53.13,78,0,4.21,IN,2022-02-13 00:48:46
1371,Ushuaia,-54.8,-68.3,46.06,61,20,20.71,AR,2022-02-13 00:42:36
1372,Kodiak,57.79,-152.4072,38.71,65,20,8.05,US,2022-02-13 00:43:09
1373,Hermanus,-34.4187,19.2345,66.9,80,87,5.82,ZA,2022-02-13 00:43:34
1374,Akyab,20.15,92.9,59.49,57,9,8.16,MM,2022-02-13 00:47:16
1375,Itarema,-2.9248,-39.9167,78.73,83,52,9.55,BR,2022-02-13 00:48:47
1376,Busselton,-33.65,115.3333,68.04,50,0,10.92,AU,2022-02-13 00:43:41
1377,Punta Arenas,-53.15,-70.9167,51.91,62,0,11.5,CL,2022-02-13 00:41:07
1378,Leh,34.1667,77.5833,-1.23,76,100,2.13,IN,2022-02-13 00:43:14
1379,Portland,45.5234,-122.6762,63.19,33,0,13.0,US,2022-02-13 00:40:33
1380,Aransas Pass,27.9095,-97.15,51.89,70,0,23.02,US,2022-02-13 00:48:48
1381,Dikson,73.5069,80.5464,-4.14,87,100,25.05,RU,2022-02-13 00:43:02
1382,Bluff,-46.6,168.3333,53.8,76,100,14.85,NZ,2022-02-13 00:43:02
1383,Kilosa,-6.8333,36.9833,68.77,97,100,1.5,TZ,2022-02-13 00:48:48
1384,Busselton,-33.65,115.3333,68.04,50,0,10.92,AU,2022-02-13 00:43:41
1385,Saint-Philippe,-21.3585,55.7679,78.35,84,2,9.08,RE,2022-02-13 00:43:38
1386,Kandalaksha,67.162,32.4123,-3.91,98,12,3.13,RU,2022-02-13 00:48:49
1387,Chuy,-33.6971,-53.4616,67.42,94,100,10.58,UY,2022-02-13 00:45:52
1388,Mount Isa,-20.7333,139.5,91.17,46,11,9.22,AU,2022-02-13 00:48:50
1389,Arosa,46.7779,9.6762,18.57,56,100,8.55,CH,2022-02-13 00:48:50
1390,Rikitea,-23.1203,-134.9692,78.84,71,0,16.82,PF,2022-02-13 00:43:00
1391,Mae Ramat,16.984,98.5166,64.72,60,99,0.94,TH,2022-02-13 00:44:53
1392,Ushuaia,-54.8,-68.3,46.06,61,20,20.71,AR,2022-02-13 00:42:36
1393,Umm Lajj,25.0213,37.2685,66.88,25,0,19.73,SA,2022-02-13 00:48:05
1394,Lompoc,34.6391,-120.4579,82.71,23,0,10.36,US,2022-02-13 00:41:44
1395,Ayr,55.4627,-4.6339,47.5,81,20,13.8,GB,2022-02-13 00:48:51
1396,Mingaora,34.7758,72.3625,42.91,36,10,7.45,PK,2022-02-13 00:48:42
1397,Marawi,7.9986,124.2928,69.66,63,100,2.55,PH,2022-02-13 00:48:29
1398,Butaritari,3.0707,172.7902,83.08,70,100,14.05,KI,2022-02-13 00:43:32
1399,Yellowknife,62.456,-114.3525,-10.59,83,75,10.36,CA,2022-02-13 00:39:26
1400,Cabras,39.93,8.5314,44.96,92,3,5.57,IT,2022-02-13 00:48:52
1401,Vaini,-21.2,-175.2,86.16,79,20,10.36,TO,2022-02-13 00:43:58
1402,Hobart,-42.8794,147.3294,79.02,44,75,21.85,AU,2022-02-13 00:40:28
1403,Seoul,37.5683,126.9778,36.97,54,75,1.14,KR,2022-02-13 00:46:23
1404,Jamestown,42.097,-79.2353,20.3,79,100,10.36,US,2022-02-13 00:42:47
1405,Fortuna,40.5982,-124.1573,70.41,79,0,6.91,US,2022-02-13 00:48:53
1406,Kieta,-6.2167,155.6333,85.24,64,100,3.85,PG,2022-02-13 00:48:53
